LOC_ID,INT_ID,LOC_NAME,LOC_NAME_ALT1,SCREEN_NAME,LAT,LONG,Z,FORMATION,SCREEN_DIAMETER_CM,SCREEN_TOP_DEPTH_M,WL_AVG_MASL,WL_AVG_TOTAL_NUM,WL_START_DATE_MDY,WL_END_DATE_MDY
-1646338051,-878006918,CRA-PW36-05,PW 36-05 (SE Collector),CRA-PW36-05,43.8517951965332,-79.08740234375,92.01649475097656,Thorncliffe (ORMGP),,4.879997253417969,90.59635162353516,35,08/24/2005,06/20/2007
-1643462129,-352479580,Caledon East DP 3-02,Peel - Caledon East - DP 3-02,Caledon East DP 3/02,43.869789123535156,-79.86223602294922,287.7699890136719,Mackinaw/Oak Ridges (ORMGP),2.5399999618530273,0.699999988079071,288.3112487792969,37,05/02/2003,08/12/2008
-1612294190,1890585858,MW03B-03,MW 03B-03 (SE Collector),MW03B-03,43.86479949951172,-79.20652770996094,181.36700439453125,Mackinaw/Oak Ridges (ORMGP),5.079999923706055,6.0959930419921875,179.57846069335938,90,10/22/2003,09/06/2013
-1594633825,-437210380,Mount Albert MW 14 (MA - MW A-1D),York - Mount Albert - MW 14  (TW MA MW A-1D),Mount Albert MW 14,44.116817474365234,-79.30167388916016,274.2799987792969,Thorncliffe (ORMGP),6.349999904632568,83.69999694824219,264.0535888671875,27080,11/30/2005,12/19/2005
-1498935955,-1498935955,Blackstock OW 00/1D,Durham - Blackstock - OW 00-1D,Blackstock OW00-1D,44.108375549316406,-78.81087493896484,276.4200134277344,Channel - Sand (ORMGP),,9.600006103515625,275.7867431640625,46,02/15/2001,12/12/2002
-1375252867,943833980,6813814,CITY OF HAMILTON,6813814,43.395084381103516,-80.02620697021484,275.0,Bedrock - Undifferentiated (ORMGP),,7.319000244140625,268.9505310058594,130,01/10/2003,01/31/2008
-1320455621,-701907950,PGMN - CLOCA - W0000261,CLOCA - Scugog (Crow's Pass) MWW-07 (PGMN),PGMN - CLOCA - W0000261,44.03257751464844,-79.03929138183594,320.6099853515625,Mackinaw/Oak Ridges (ORMGP),6.349999904632568,25.910003662109375,296.4085388183594,106457,05/07/2003,05/12/2021
-1297579927,-1297579927,Cannington OW 97/4S,Durham - Cannington - OW 97-4S,Cannington-OW97-4S,44.3448486328125,-79.03665161132812,256.8902893066406,Lower Newmarket (ORMGP),3.200000047683716,1.1999969482421875,256.0635986328125,100,04/18/2005,09/18/2013
82513037,1523664431,Georgetown Pump House - Maple Ave-Cedarvale 4a,Halton - Georgetown - Maple Ave-Cedarvale Well 4A,PH_Cedarvale 4a,43.64458465576172,-79.91558074951172,231.26979064941406,,,,226.05471801757812,9402,01/12/1968,12/31/2007
120000006,120000005,Newmarket MW 16,York - Newmarket - MW 16 (AECOM - Green-Lane),Newmarket MW 16,44.07558059692383,-79.47357177734375,255.34678649902344,Scarborough (ORMGP),15.239999771118164,90.19999694824219,227.9484405517578,193232,01/14/2013,03/30/2022
120000025,120000012,Newmarket MW 14s,York - Newmarket - MW 14s,Newmarket MW 14s,44.031192779541016,-79.47361755371094,268.1536865234375,Upper Newmarket (ORMGP),7.619999885559082,31.239999771118164,258.8154296875,178362,02/15/2013,03/30/2022
120000431,120000242,Richmond Hill MW 09,York - Richmond Hill - MW 9,Richmond Hill MW 9,43.8738899230957,-79.4262466430664,220.60000610351562,Mackinaw/Oak Ridges (ORMGP),6.400000095367432,19.800003051757812,218.98275756835938,325481,01/01/2013,06/15/2022
241550649,241537575,CRA-MW 32-05,MW 32-05 (SE Collector),CRA-MW 32-05,43.84551239013672,-79.16564178466797,170.32098388671875,,,,161.8344268798828,48,01/23/2008,12/13/2011
241558878,241547087,CRA-BH89-07,BH 89-07 (SE Collector),CRA-BH 89-07,43.84486770629883,-79.14786529541016,144.16329956054688,,,,142.912841796875,102,01/23/2008,06/03/2014
1117047025,-1477453730,Caledon East DP 15-02,Peel - Caledon East - DP 15-02,Caledon East DP15-02d,43.880680084228516,-79.83509826660156,279.5,Halton Till,1.9049999713897705,2.899993896484375,279.40118408203125,9222,12/04/2002,05/06/2014
1117047025,1727052547,Caledon East DP 15-02,Peel - Caledon East - DP 15-02,Caledon East DP15-02s,43.880680084228516,-79.83509826660156,279.5,Halton Till,1.9049999713897705,1.100000023841858,279.4095764160156,8404,12/04/2002,05/06/2014
1150386407,17339,Blackstock MW 8 (PW 8),Durham - Blackstock - MW 8 (PW 8),Blackstock MW 8 (PW 8) - Raw,44.11528778076172,-78.82869720458984,285.39300537109375,Thorncliffe (ORMGP),20.30000114440918,46.6343994140625,280.1549987792969,3685,06/18/1999,08/14/2019
1156084881,-1200989463,CRA-MW59B-07,MW 59B-07 (SE Collector),CRA-MW59B-07,43.86952209472656,-79.19192504882812,188.42100524902344,Lower Newmarket (ORMGP),,10.669998168945312,186.6900634765625,145,03/07/2007,06/03/2014
1171467518,1666919316,Nobleton MW 6 (TW NB1-2006),York - Nobleton - MW 6 - TW NB1d-06 (MMM) - pilot hole,Nobleton MW 6,43.89803695678711,-79.65304565429688,260.7909851074219,Scarborough (ORMGP),15.239999771118164,96.60000610351562,239.93736267089844,343670,09/19/2006,06/03/2022
1194000220,297121118,MW09-03,"YORK-DURHAM TOWNLINE, SOUTH OF 14TH AVE.",MW09-03,43.86918258666992,-79.17633056640625,189.08900451660156,Lower Newmarket (ORMGP),5.079999923706055,41.14799499511719,186.0089569091797,45,10/22/2003,06/19/2007
1233220679,687422076,Orono SW 08-1,Durham - Orono - SW 08-1,Orono-SW 08-1,43.97486877441406,-78.62661743164062,155.0540008544922,Thorncliffe (ORMGP),5.079999923706055,10.972793579101562,153.95217895507812,72124,04/07/2008,12/31/2021
1255446168,-1614518330,PGMN - LowerTrentRCA - W0000122,LowerTrentRCA - Cramahe Well (PGMN),PGMN - LTRCA - W0000122,44.0493049621582,-77.91405487060547,188.47479248046875,Lower Newmarket (ORMGP),,28.346405029296875,181.85928344726562,89860,04/03/1990,04/05/2016
1441583063,-535055668,Newmarket MW 11 (TW 11),York - Newmarket - MW 11 - TW 11,Newmarket MW 11,44.05055236816406,-79.45360565185547,247.48599243164062,Scarborough (ORMGP),5.079999923706055,77.41900634765625,238.4302978515625,42378,06/18/1991,10/27/2006
1458491494,941674082,PGMN - QUINTE - W0000266,QUINTE - W00266 (QUINTE CA.) (PGMN),PGMN - QUINTE - W0000266,44.71845626831055,-77.58805084228516,300.82952880859375,Bedrock - Undifferentiated (ORMGP),,6.100006103515625,294.9238586425781,85507,05/24/2002,11/20/2012
1478484350,1478484350,Orono OW 02/1,Durham - Orono - OW 02-1,Orono-OW02-1,43.974388122558594,-78.63389587402344,157.97000122070312,Lower Newmarket (ORMGP),5.099999904632568,18.0,148.8043670654297,97,04/19/2005,09/17/2013
-1454275418,1812034863,Caledon East MW 4-02,Peel - Caledon East - MW 4-02,Caledon East MW 4-02,43.872283935546875,-79.8869400024414,327.266357421875,Halton Till,5.079999923706055,3.70001220703125,322.52484130859375,53,06/13/2002,10/26/2006
-1278014009,1764856755,PGMN - GRCA - W0000207,GRCA - Rice Lake CA (PGMN),PGMN - GRCA - W0000207,44.08445739746094,-78.29927825927734,198.1699981689453,Lower Newmarket (ORMGP),15.875,17.67840576171875,190.70652770996094,86262,12/13/2002,05/29/2019
-1187483640,-1187483640,Minesing T3-5,NVCA - Minesing T3-5,Minesing T3-5_D,44.37883377075195,-79.84420776367188,183.58999633789062,Upper Newmarket (ORMGP),5.079999923706055,1.649993896484375,183.35208129882812,4492,09/15/2014,08/23/2018
-1187483640,1668018169,Minesing T3-5,NVCA - Minesing T3-5,Minesing T3-5_S,44.37883377075195,-79.84420776367188,183.58999633789062,Upper Newmarket (ORMGP),5.079999923706055,0.2299957275390625,183.33657836914062,9053,09/15/2014,11/14/2017
-1677468810,239124670,Dufferin OW1-2,Milton Quarry - OW 1-2,OW1-2,43.55935287475586,-79.97830963134766,331.50701904296875,Bedrock - Undifferentiated (ORMGP),0.07599999755620956,5.029998779296875,328.61376953125,89,11/12/1997,12/09/2003
-1630086765,-886134507,Halton Fed of Agr - Gevaert (House),GEVAERT MR.,2807273,43.55807113647461,-80.08193969726562,355.6422119140625,Bedrock - Undifferentiated (ORMGP),,17.682212829589844,352.56231689453125,58,03/27/1989,12/02/2022
-1589002682,-1589002682,Cannington OW 99/1D,Durham - Cannington - OW 99-1D,Cannington-OW99-1D,44.3478889465332,-79.03033447265625,259.7200012207031,Bedrock - Undifferentiated (ORMGP),5.0,6.399993896484375,256.4838562011719,143,02/15/2001,05/14/2013
-1558035503,-1811110769,Palgrave DP 12-04,Peel - Palgrave - DP 12-04,Palgrave DP 12-04,43.93700408935547,-79.82257843017578,280.1700134277344,Halton Till,3.799999952316284,1.8600000143051147,279.95477294921875,52948,01/27/2005,09/13/2013
79803621,1590856258,Port Perry TW 08-3,Durham - Port Perry - TW 08-3 (Burnside),Port Perry TW 08-3,44.053565979003906,-78.90796661376953,276.6499938964844,Thorncliffe (ORMGP),15.239999771118164,79.55000305175781,270.0780944824219,120,05/07/2008,08/14/2019
88383604,1849191525,Kleinburg MW 4,York - Kleinburg - MW 4 (kb2),Kleinburg MW 4,43.85103988647461,-79.62286376953125,188.38999938964844,Channel - Silt (ORMGP),5.079999923706055,2.1999969482421875,187.33566284179688,196451,08/06/2003,04/19/2006
120000009,120000008,Newmarket MW 21,York - Newmarket - MW 21 (AECOM),Newmarket MW 21d,44.076515197753906,-79.4696273803711,250.00233459472656,Sunnybrook (ORMGP),7.619999885559082,76.20000457763672,227.84408569335938,206176,04/29/2013,03/30/2022
120000009,-770177618,Newmarket MW 21,York - Newmarket - MW 21 (AECOM),Newmarket MW 21s,44.076515197753906,-79.4696273803711,250.00233459472656,Channel - Silt (ORMGP),7.619999885559082,29.56559944152832,240.9770050048828,205996,05/02/2013,03/30/2022
120000028,120000015,Newmarket MW 18,York - Newmarket - MW 18,Newmarket MW 18d,44.047019958496094,-79.47898864746094,264.8691711425781,Thorncliffe (ORMGP),7.619999885559082,92.96400451660156,236.1309051513672,175318,04/17/2013,03/30/2022
120000028,1053985647,Newmarket MW 18,York - Newmarket - MW 18,Newmarket MW 18s2 (Replacement),44.047019958496094,-79.47898864746094,264.8691711425781,Lower Newmarket (ORMGP),7.619999885559082,53.339996337890625,256.9456787109375,162599,04/17/2013,03/30/2022
120000029,120000016,Nobleton MW 8,York - Nobleton - MW 8 (Hwy 27 and King),Nobleton MW 8d,43.90632629394531,-79.6534194946289,264.2958984375,Scarborough (ORMGP),7.619999885559082,92.95999908447266,240.25711059570312,162095,02/17/2013,06/03/2022
120000029,1842091225,Nobleton MW 8,York - Nobleton - MW 8 (Hwy 27 and King),Nobleton MW 8s,43.90632629394531,-79.6534194946289,264.2958984375,Mackinaw/Oak Ridges (ORMGP),7.619999885559082,27.42999267578125,251.26026916503906,162091,02/18/2013,06/03/2022
120000707,120000382,East Gwillimbury MW 02,York_East Gwillimbury_MW02,East Gwillimbury_MW02,44.07585144042969,-79.4736557006836,256.2200012207031,Scarborough (ORMGP),30.5,82.30000305175781,227.9965057373047,130997,08/02/2016,03/30/2022
135349085,14459,Greenbank MW 6 (PW 6),Durham - Greenbank - MW #6 (TW 1-91 - PW 6),Greenbank-MW6,44.1606559753418,-79.02668762207031,317.0039978027344,Inter Newmarket Sediment (ORMGP),15.239999771118164,24.99359130859375,306.3774719238281,4918,01/16/1991,06/06/2019
182944807,-25481851,CRA-MW36B-05,MW 36B-05 (SE Collector),CRA-MW36B-05,43.85179138183594,-79.08722686767578,91.45814514160156,Thorncliffe (ORMGP),,3.2681427001953125,89.71238708496094,115,08/24/2005,09/05/2014
1107261731,-17745423,PW 10-03,PW 10-03 (SE Collector),PW10-03,43.87299346923828,-79.17805480957031,192.17100524902344,Lower Newmarket (ORMGP),,48.46319580078125,165.92578125,157,10/22/2003,09/18/2015
1139815319,-1443626103,Dufferin BH43,Milton Quarry - BH 43,BH43-II,43.559391021728516,-79.97274780273438,336.85906982421875,Mackinaw/Oak Ridges (ORMGP),0.03200000151991844,0.79998779296875,336.554443359375,104,11/03/1997,12/09/2003
1139815319,-462385496,Dufferin BH43,Milton Quarry - BH 43,BH43-I,43.559391021728516,-79.97274780273438,336.85906982421875,Mackinaw/Oak Ridges (ORMGP),0.050999999046325684,4.600006103515625,336.544677734375,109,11/03/1997,12/09/2003
1166545842,-344242145,Guelph Arkell PW 6,Guelph - Arkell PW 6 (GUELPH P U C),6702808,43.55910873413086,-80.15824127197266,330.58013916015625,Bedrock - Undifferentiated (ORMGP),,10.972808837890625,307.985107421875,209,05/27/1963,10/22/2001
-1658820713,-1658820713,Cannington OW 00/1D,Durham - Cannington - OW 00-1D,Cannington-OW00-1D,44.3482780456543,-79.05298614501953,254.90199279785156,Bedrock - Undifferentiated (ORMGP),6.0,5.8000030517578125,253.80496215820312,116359,02/15/2001,12/31/2021
-1566415568,-970785621,PGMN - NVCA - W0000323,NVCA - Bradford West - MW 1/03 (D I & S) (PGMN),PGMN - NVCA - W0000323-4,44.1616096496582,-79.64152526855469,270.02508544921875,Sunnybrook (ORMGP),6.349999904632568,102.10800170898438,231.18646240234375,130770,05/21/2003,11/08/2022
-1566415568,-1964716562,PGMN - NVCA - W0000323,NVCA - Bradford West - MW 1/03 (D I & S) (PGMN),PGMN - NVCA - W0000323-2,44.1616096496582,-79.64152526855469,270.02508544921875,Upper Newmarket (ORMGP),5.079999923706055,15.240004539489746,256.4976501464844,133497,05/21/2003,11/08/2022
-1566415568,1639609757,PGMN - NVCA - W0000323,NVCA - Bradford West - MW 1/03 (D I & S) (PGMN),PGMN - NVCA - W0000323-3,44.1616096496582,-79.64152526855469,270.02508544921875,Upper Newmarket (ORMGP),5.079999923706055,28.95599365234375,255.58740234375,114233,05/21/2003,11/08/2022
-1526185088,1464336738,Georgetown OW 1-00,Halton - Georgetown - OW 1-00,Georgetown OW 1-00 d,43.602989196777344,-79.93501281738281,259.88250732421875,Thorncliffe (ORMGP),5.079999923706055,39.623992919921875,258.2536315917969,42524,09/06/2000,06/11/2021
-1526185088,-144291269,Georgetown OW 1-00,Halton - Georgetown - OW 1-00,Georgetown OW 1-00 s,43.602989196777344,-79.93501281738281,259.88250732421875,Mackinaw/Oak Ridges (ORMGP),5.079999923706055,9.143997192382812,258.3079833984375,42523,09/06/2000,06/11/2021
-1502473380,-435761476,Nobleton MW 4S,York - Nobleton - MW 4S - MW NB1S-06 (MMM),Nobleton MW 4s,43.89794921875,-79.65310668945312,260.5369873046875,Mackinaw/Oak Ridges (ORMGP),,18.600006103515625,254.78758239746094,190520,08/22/2006,06/03/2022
-1437181533,-963585733,CRA-MW9,MW 9 (SE Collector),CRA-MW9,43.86482238769531,-79.2309341430664,177.53799438476562,Lower Newmarket (ORMGP),,21.949996948242188,163.41355895996094,125,01/08/2008,01/14/2016
-1422320205,-898496767,MW18-03,MW 18-03 (SE Collector),MW18-03,43.838619232177734,-79.17351531982422,158.58999633789062,Lower Newmarket (ORMGP),5.079999923706055,12.801605224609375,156.18475341796875,58,10/23/2003,07/18/2014
-1362950971,1028836032,Halton Fed of Agr - Gevaert (North),"GEVAERT, LIEVEN",2808713,43.56289291381836,-80.07708740234375,357.24359130859375,Bedrock - Undifferentiated (ORMGP),,19.203590393066406,354.01275634765625,62,04/27/1998,05/06/2022
-1332278681,-1984340774,Georgetown Pump House - Princess Anne,Halton - Georgetown - Cluster Princess Anne,PH_Total_Princess Anne,43.64653778076172,-79.9317855834961,260.859619140625,,,,254.7322235107422,42974,08/31/1990,12/31/2007
-1318528557,-119415784,Inglewood OW 5,Peel - Inglewood - OW 5-78,Inglewood OW 5,43.79922866821289,-79.93023681640625,268.3046875,Bedrock - Undifferentiated (ORMGP),5.0,48.69999694824219,265.1138916015625,158048,01/07/2005,09/15/2021
-1304420452,262029454,PGMN - ORCA - W0000193,"ORCA - Morgan (MORGAN, RICHARD) (PGMN)",PGMN - ORCA - W0000193,44.52971267700195,-78.30610656738281,276.9676513671875,Bedrock - Undifferentiated (ORMGP),,6.09600830078125,259.1473693847656,70950,11/10/1997,10/20/2020
113379641,-1114887738,Halton Fed of Agr - Willis,WILLIS FAMILY,2807632,43.51893997192383,-79.80350494384766,193.91696166992188,Halton Till,,9.75360107421875,190.88134765625,108,08/08/1990,12/02/2022
115149365,-1519085327,CRA-MW27B-05,MW 27B-05 (SE Collector),CRA-MW27B-05,43.8516731262207,-79.1512222290039,162.13262939453125,Halton Till,,0.0,161.54345703125,107,06/23/2005,02/07/2014
120000003,120000003,Queensville MW 19,York - Queensville - MW 19 (AECOM - Warden Ave),Queensville MW 19d,44.15175247192383,-79.40158081054688,264.2806396484375,Thorncliffe (ORMGP),7.619999885559082,51.20640563964844,234.07359313964844,151908,04/02/2013,03/15/2022
120000003,-521485972,Queensville MW 19,York - Queensville - MW 19 (AECOM - Warden Ave),Queensville MW 19s,44.15175247192383,-79.40158081054688,264.2806396484375,Inter Newmarket Sediment (ORMGP),7.619999885559082,7.6199951171875,260.62469482421875,169662,03/14/2013,03/15/2022
120000018,1751829495,OGS-SS-13-08,Ont Geol Surv-SS-13-08 Tottenham,OGS-SS-13-08,44.014892578125,-79.78038787841797,260.6220397949219,Bedrock - Undifferentiated (ORMGP),6.349999904632568,142.10000610351562,243.66033935546875,49767,03/18/2015,11/08/2022
120000020,120000009,Aurora MW 16,York - Aurora - MW #16,Aurora MW 16,44.01809310913086,-79.47026062011719,255.45440673828125,Channel - Silt (ORMGP),7.599999904632568,27.579999923706055,248.03932189941406,174324,01/14/2013,03/30/2022
120000596,120000372,ORMGP - BH 1-17,ORMGP - Sideline 4 and 407 - BH 1-17,ORMGP - BH 1-17 d,43.9476432800293,-79.0426254272461,186.94137573242188,Scarborough (ORMGP),6.349999904632568,67.05599975585938,174.2681121826172,26415,11/29/2017,08/19/2023
120000596,120000373,ORMGP - BH 1-17,ORMGP - Sideline 4 and 407 - BH 1-17,ORMGP - BH 1-17 i,43.9476432800293,-79.0426254272461,186.94137573242188,Thorncliffe (ORMGP),5.079999923706055,48.76800537109375,175.85939025878906,27891,11/29/2017,08/19/2023
120000596,120000374,ORMGP - BH 1-17,ORMGP - Sideline 4 and 407 - BH 1-17,ORMGP - BH 1-17 s,43.9476432800293,-79.0426254272461,186.94137573242188,Lower Newmarket (ORMGP),5.079999923706055,9.906005859375,185.6675567626953,27882,11/29/2017,08/19/2023
241636337,241630538,Richmond Hill PW 11,York - Richmond Hill - PW 11 (REGION OF YORK),7178086,43.874061584472656,-79.42552185058594,225.87457275390625,Mackinaw/Oak Ridges (ORMGP),30.479999542236328,17.830795288085938,217.66583251953125,564484,08/11/2011,07/27/2020
241663665,241654784,Richmond Hill PW 10,York - Richmond Hill - PW 10 (REGION OF YORK),7178093,43.87388610839844,-79.41937255859375,229.11920166015625,Mackinaw/Oak Ridges (ORMGP),30.479999542236328,17.67840576171875,216.1309356689453,564528,08/30/2011,07/27/2020
1118176639,2076924626,CRA-BH30-07,BH 30-07 (SE Collector),CRA-BH30-07,43.84635543823242,-79.11780548095703,125.53299713134766,Thorncliffe (ORMGP),3.0,38.12999725341797,111.14181518554688,66,02/26/2008,09/02/2014
1358974220,2084190262,PGMN - LSRCA - W0000293-2 (Old Barrie Rd 1/03),LSRCA - Oro Pit BH 1 (LAKE SIMCOE REG. CA.) (PGMN),PGMN - LSRCA - W0000293-2,44.52738571166992,-79.5738754272461,332.58880615234375,Mackinaw/Oak Ridges (ORMGP),5.079999923706055,13.71600341796875,316.97857666015625,83305,03/18/2003,01/13/2015
1518972663,-1188449138,Stouffville MW 08S,York - Stouffville - MW 8S ((Mohawk & Main Deep - SMMS),Stouffville MW 8s,43.97613525390625,-79.22708129882812,285.0950012207031,Lower Newmarket (ORMGP),,38.100006103515625,282.35919189453125,135087,09/24/2001,06/21/2010
1135790721,-1654847029,MW5/62(COG),GUELPH P U C,MW5/62(COG),43.545631408691406,-80.17440795898438,328.48614501953125,Bedrock - Undifferentiated (ORMGP),,14.935211181640625,314.6589660644531,145,12/04/1962,12/07/2000
825060844,104016018,6807091,SULLIVAN P,6807091,43.266944885253906,-79.99433898925781,198.51937866210938,Bedrock - Undifferentiated (ORMGP),,4.2671966552734375,194.15895080566406,369,06/14/1969,01/31/2008
-1277904039,150188,CAMC/YPDT - High Park,CAMC/YPDT - High Park,CAMC/YPDT-High Park-1,43.65152359008789,-79.4611587524414,87.118408203125,Scarborough (ORMGP),15.875,38.099998474121094,95.67986297607422,23675,07/31/2003,01/16/2005
-1187483633,-1187483633,Minesing T6-1,NVCA - Minesing T6-1,Minesing T6-1_D,44.38393020629883,-79.84967041015625,183.3300018310547,Sunnybrook (ORMGP),5.079999923706055,1.3300018310546875,183.1808624267578,13547,09/15/2014,08/23/2018
-1187483629,-1187483629,Minesing T6-3A_13,NVCA - Minesing T6-3A_13,Minesing T6-3A_13_D,44.38307189941406,-79.84485626220703,183.6199951171875,Upper Newmarket (ORMGP),6.349999904632568,1.529998779296875,183.60421752929688,4055,05/27/2014,08/23/2018
-1187483629,-1241745662,Minesing T6-3A_13,NVCA - Minesing T6-3A_13,Minesing T6-3A_13_S,44.38307189941406,-79.84485626220703,183.6199951171875,Upper Newmarket (ORMGP),6.349999904632568,0.4499969482421875,183.62939453125,4055,05/27/2014,08/23/2018
-1187483620,-1187483613,Minesing Pinegrove,NVCA - Minesing - Pinegrove,Minesing Pinegrove,44.37873077392578,-79.8253173828125,219.36000061035156,Upper Newmarket (ORMGP),5.079999923706055,21.33599853515625,211.6376190185547,53137,04/04/2014,11/07/2022
-1098117506,-1293450021,Stouffville MW 28s (CRA-MW28s),York - Stouffville - MW 28s (CRA-MW28s),Stouffville MW 28s (CRA-MW28s),43.94926452636719,-79.27735137939453,242.0800018310547,Halton Till,5.079999923706055,1.5200042724609375,240.99229431152344,155746,08/20/2003,03/31/2022
-1066113844,2140720827,PGMN - LSRCA - W0000298-3 (100 ft) Baldwin,LSRCA - Baldwin BH 3/03 - Int (PGMN),PGMN - LSRCA - W0000298-3 (29m -int),44.26263427734375,-79.33592987060547,230.50340270996094,Scarborough (ORMGP),7.619999885559082,27.4320068359375,230.006103515625,110064,03/20/2003,01/16/2017
-1066113844,600000009,PGMN - LSRCA - W0000298-3 (100 ft) Baldwin,LSRCA - Baldwin BH 3/03 - Int (PGMN),PGMN - LSRCA - W0000298-3 (29m -int) 2019 TEST,44.26263427734375,-79.33592987060547,230.50340270996094,Scarborough (ORMGP),,27.4320011138916,226.58238220214844,125187,03/24/2003,11/07/2018
-1066113844,240000054,PGMN - LSRCA - W0000298-3 (100 ft) Baldwin,LSRCA - Baldwin BH 3/03 - Int (PGMN),PGMN - LSRCA - W0000298-3 (29m -int) 2018 TEST,44.26263427734375,-79.33592987060547,230.50340270996094,Scarborough (ORMGP),,27.4320068359375,228.95558166503906,120005,03/20/2003,03/05/2018
-1037556015,898359049,Cannington SW 06/4D,Durham - Cannington - SW 06-4D,Cannington-SW06-4D,44.34502029418945,-79.0520248413086,259.41900634765625,Thorncliffe (ORMGP),5.079999923706055,12.091415405273438,257.2000732421875,59287,09/20/2006,12/31/2021
-1025542095,-1025542095,Uxville SW 03/2D,Durham - Uxville - SW 03-2D,Uxville SW03-2D,44.01982116699219,-79.22840881347656,334.7139892578125,Mackinaw/Oak Ridges (ORMGP),5.079999923706055,44.19598388671875,319.7529602050781,166,04/18/2005,08/15/2019
-930646375,-781216040,CRA-MW24-05,MW 24-05 (SE Collector),CRA-MW24-05,43.83345413208008,-79.16036987304688,142.10153198242188,Lower Newmarket (ORMGP),,2.8915252685546875,139.76893615722656,96,06/23/2005,07/04/2014
118718,118718,Aurora PW 1 (TH 2/57),York - Aurora - PW 1 (TH 2/57),Aurora PW 1,44.00369644165039,-79.47088623046875,254.0,Channel - Sand (ORMGP),20.319997787475586,92.35440063476562,176.01095581054688,6382,02/01/1982,06/12/2022
123597,123597,Stouffville PW 3,York - Stouffville - PW 3,Stouffville PW 3,43.981685638427734,-79.23080444335938,287.1600036621094,Mackinaw/Oak Ridges (ORMGP),30.479999542236328,20.421600341796875,279.385009765625,243460,06/01/1976,06/12/2022
123722,123722,Holland Landing (Private) Bowman,York - Holland Landing - Private (BOWMAN R ALLAN),Bowman,44.094058990478516,-79.46846008300781,247.611083984375,Thorncliffe (ORMGP),0.3064509928226471,65.53199768066406,212.06106567382812,50,08/05/1976,01/24/2006
126143,126143,Vandorf (Private) Kapoor,York - Vandorf - Private - Vino Kapoor (SCHNIDER P),Kapoor (10 Executive Drive),44.004730224609375,-79.39517211914062,300.74810791015625,Thorncliffe (ORMGP),,72.84719848632812,249.4962921142578,77,10/23/1981,01/10/2006
126687,126687,Holland Landing (Private) Dickie,York - Holland Landing - Private (DICKIE R),DICKIE,44.090694427490234,-79.46595001220703,245.0215606689453,Thorncliffe (ORMGP),14.604999542236328,56.08320617675781,206.59288024902344,50,11/15/1983,01/24/2006
127824,127824,Mari,MARI S,Mari,44.1330451965332,-79.45526885986328,278.74005126953125,Scarborough (ORMGP),15.239999771118164,116.12879943847656,214.9840545654297,50,10/28/1982,01/24/2006
127917,127917,Queensville (Private) Cordick/Parsons,"York - Queensville - Private (PARSONS, TOM)",Queensville (Private) Cordick (Parsons),44.18507766723633,-79.4089126586914,255.85003662109375,Bedrock - Undifferentiated (ORMGP),,75.28559875488281,242.08987426757812,50,07/07/1986,01/24/2006
129937,919245708,Holland Landing MW 03 (TH 5-88),York - Holland Landing - MW 3 (TH 5-88),Holland Landing MW 3,44.10077667236328,-79.46590423583984,252.08999633789062,Scarborough (ORMGP),5.079999923706055,99.66999816894531,223.95407104492188,257985,07/28/1989,11/29/2021
131393,131393,Bathurst Golf - PW1/91,"TRCA - PW 1/91 - Bathurst Glen (Club House Well) (THOMPSON, WM.)",Bathurst Glen (Club House Well),43.9264030456543,-79.47440338134766,314.993408203125,Mackinaw/Oak Ridges (ORMGP),15.239999771118164,53.339996337890625,277.2690734863281,131802,07/26/1991,05/05/2023
131407,131407,Ballantrae (Private) Garth,"York - Ballantrae - Private (GARTH, STEVE)",GARTH,44.037654876708984,-79.3365707397461,319.93548583984375,Channel - Sand (ORMGP),15.239999771118164,58.5216064453125,306.82080078125,49,03/09/1992,01/11/2006
131833,131833,Queensville PW 3,York - Queensville - PW 3,Queensville PW 3,44.122310638427734,-79.44713592529297,280.04998779296875,Thorncliffe (ORMGP),30.479999542236328,103.02239990234375,220.26051330566406,72717,03/17/1990,06/12/2022
132087,132087,Mount Albert PW 2,York - Mount Albert - PW 2,Mount Albert PW 2,44.12954330444336,-79.30968475341797,279.3399963378906,Thorncliffe (ORMGP),0.7741919755935669,54.86399841308594,250.66371154785156,334395,11/01/1993,06/12/2022
132262,451824345,PGMN - LSRCA - W0000071 (GSC-BAL; Ballantrae MW 6 D&I&S),LSRCA - York (MW #6) - Ballantrae - GSC-BH-BAL (PGMN),Ballantrae MW 6d,44.02812194824219,-79.31904602050781,332.2080078125,Scarborough (ORMGP),5.079999923706055,131.6999969482422,280.64996337890625,466668,02/13/1997,03/28/2022
132262,148927,PGMN - LSRCA - W0000071 (GSC-BAL; Ballantrae MW 6 D&I&S),LSRCA - York (MW #6) - Ballantrae - GSC-BH-BAL (PGMN),Ballantrae MW 6i,44.02812194824219,-79.31904602050781,332.2080078125,Channel - Sand (ORMGP),2.5399999618530273,91.39999389648438,306.4132080078125,333445,02/13/1997,03/28/2022
132262,360000456,PGMN - LSRCA - W0000071 (GSC-BAL; Ballantrae MW 6 D&I&S),LSRCA - York (MW #6) - Ballantrae - GSC-BH-BAL (PGMN),PGMN - LSRCA - W0000071 (Ballantrae MW 6s),44.02812194824219,-79.31904602050781,332.2080078125,Mackinaw/Oak Ridges (ORMGP),2.5399999618530273,36.599998474121094,320.2912902832031,133752,02/13/1997,10/10/2017
134125,-206706988,Stouffville MW 10 (OGS 11-AG-213),York - Stouffville - MW 10 (Wilson's) WILSON'S WATER WELLS,Stouffville MW 10 - Wilsons Well,44.00209426879883,-79.2879867553711,331.01348876953125,Scarborough (ORMGP),20.31999969482422,157.8863983154297,263.17236328125,87469,09/01/1999,06/21/2021
134329,134329,Vandorf MW 2I,York - Vandorf - MW 2I (TW-2-99),Vandorf MW 2i,44.0076789855957,-79.393798828125,300.5400085449219,Mackinaw/Oak Ridges (ORMGP),3.809999942779541,50.9015998840332,258.0765075683594,380668,11/12/1999,03/29/2022
-1515280615,-1846705408,MW19B-03,MW 19B-03 (SE Collector),MW19B-03,43.83481216430664,-79.17202758789062,153.61700439453125,Lower Newmarket (ORMGP),5.079999923706055,7.6199951171875,152.79954528808594,84,10/23/2003,07/18/2014
-1454736246,1507172639,PGMN - TRCA - W0000017,TRCA - North York MOE OW #090A (PGMN),PGMN - TRCA - W0000017,43.757354736328125,-79.43074798583984,146.57000732421875,Scarborough (ORMGP),40.63999938964844,39.928802490234375,145.9879150390625,64748,08/09/2001,02/03/2010
-1377788728,-1487454423,Caledon East TW 6-77,Peel - Caledon East - TW 6-77,Caledon East TW 6-77,43.87105178833008,-79.86245727539062,292.570068359375,Thorncliffe (ORMGP),30.479999542236328,41.681396484375,287.53082275390625,69,10/01/1977,12/22/2009
120000019,-1275672324,Aurora MW 19,York - Aurora - MW #19 (Sheppards Bush),Aurora MW 19d,43.996803283691406,-79.45376586914062,270.6282958984375,Thorncliffe (ORMGP),7.599999904632568,93.41999816894531,250.79273986816406,158756,03/08/2013,03/29/2022
120000019,-909673395,Aurora MW 19,York - Aurora - MW #19 (Sheppards Bush),Aurora MW 19i,43.996803283691406,-79.45376586914062,270.6282958984375,Channel - Sand (ORMGP),7.599999904632568,67.97000122070312,250.84237670898438,158745,03/08/2013,03/29/2022
151800611,151800611,Uxbridge SW 5-04-1,Durham - Uxbridge - SW 5-04-1,Uxbridge SW 5-04-1,44.10126495361328,-79.11382293701172,273.50201416015625,Channel - Sand (ORMGP),6.800000190734863,47.24000549316406,271.6376953125,97876,04/29/2005,12/31/2021
154809852,-28156945,PGMN - GRCA - W0000393,GRCA - Baltimore CA (PGMN),PGMN - GRCA - W0000393,44.028533935546875,-78.14700317382812,152.52000427246094,Lower Newmarket (ORMGP),7.619999885559082,3.0480000972747803,151.792724609375,85230,01/13/2004,05/29/2019
224198855,97019823,CRA-BH22-07,BH 22-07 (SE Collector),CRA-BH22-07,43.848514556884766,-79.10679626464844,117.04900360107422,Thorncliffe (ORMGP),3.0,28.87999725341797,104.96150970458984,49,01/23/2008,12/14/2011
1112197925,-1444351102,Caledon East MW 2-02 (Stantec),Peel - Caledon East - MW 2-02,Caledon East MW 2-02,43.868370056152344,-79.86433410644531,289.4700012207031,Mackinaw/Oak Ridges (ORMGP),5.0,3.399993896484375,288.32061767578125,43921,07/05/2002,11/26/2014
1125361917,1976402220,Dufferin BH44,Milton Quarry - BH 44,BH44-II,43.55880355834961,-79.9775161743164,332.72216796875,Upper Newmarket (ORMGP),0.03200000151991844,1.5,330.7874755859375,47,11/03/1997,07/15/2003
1125361917,-1786367049,Dufferin BH44,Milton Quarry - BH 44,BH44-I,43.55880355834961,-79.9775161743164,332.72216796875,Upper Newmarket (ORMGP),0.050999999046325684,4.600006103515625,329.67034912109375,110,11/03/1997,12/09/2003
1144706497,273543214,CRA-BH115A-07,BH 115A-07 (SE Collector),CRA-BH115A-07,43.86186599731445,-79.2204818725586,177.6840057373047,Thorncliffe (ORMGP),3.809999942779541,29.800003051757812,163.86343383789062,103,01/23/2008,02/05/2016
1172086480,1172086480,Orono MW 3 (PW 3),Durham - Orono - MW 3 (PW 3),Orono-MW3,43.96786117553711,-78.62739562988281,133.13299560546875,Thorncliffe (ORMGP),25.399999618530273,9.120002746582031,127.58626556396484,4816,01/01/2008,10/31/2022
1211381781,-981437103,Georgetown Pump House - 10th Line,Halton - Georgetown - 10th Line - Well 7,PH_10th Line,43.63914108276367,-79.86493682861328,229.7602996826172,,,,210.4363250732422,672,03/10/1993,12/31/1996
1225160230,762479,Palgrave DP 11-04,Peel - Palgrave - DP 11-04,Palgrave DP 11-04d,43.97097396850586,-79.85151672363281,287.7900085449219,Mackinaw/Oak Ridges (ORMGP),3.799999952316284,1.8900146484375,287.8706359863281,101,01/27/2005,06/22/2023
1225160230,534849901,Palgrave DP 11-04,Peel - Palgrave - DP 11-04,Palgrave DP 11-04s,43.97097396850586,-79.85151672363281,287.7900085449219,Mackinaw/Oak Ridges (ORMGP),3.799999952316284,1.44000244140625,287.7682189941406,100,01/27/2005,06/22/2023
1239479315,-922364123,MOE OW #440A,OWRC,MOE Obs Well #440A,43.60112380981445,-80.11805725097656,351.81103515625,Bedrock - Undifferentiated (ORMGP),13.969999313354492,7.6199951171875,349.9222106933594,737,03/17/1966,05/31/1976
1299405714,-871611221,Nobleton MW 4D,York - Nobleton - MW 4D - MW NB1D-06 (MMM),Nobleton MW 4d,43.898040771484375,-79.65320587158203,260.52801513671875,Scarborough (ORMGP),7.619999885559082,99.05999755859375,239.94374084472656,342278,09/19/2006,06/03/2022
1331167636,-2065481979,Aurora MW 09 (WMI - OW 25/95 B&C),York - Aurora - MW #9 - WMI - OW 25-95 B&C,Aurora MW 9B-deep,43.98643112182617,-79.43916320800781,280.1419982910156,Mackinaw/Oak Ridges (ORMGP),5.079999923706055,37.80000305175781,271.6429748535156,510847,03/06/1995,03/29/2022
1331167636,149054,Aurora MW 09 (WMI - OW 25/95 B&C),York - Aurora - MW #9 - WMI - OW 25-95 B&C,Aurora MW 9C-shallow,43.98643112182617,-79.43916320800781,280.1419982910156,Mackinaw/Oak Ridges (ORMGP),127.0,22.600006103515625,271.9852294921875,510854,03/06/1995,03/29/2022
1388286468,34427580,MW02-03,MW 02-03 (SE Collector),MW02-03,43.86277770996094,-79.21543884277344,177.98399353027344,Lower Newmarket (ORMGP),5.079999923706055,32.003997802734375,163.3458251953125,106,10/22/2003,05/27/2010
1440787558,985477545,Cannington OW 06/2,Durham - Cannington - OW 06-2,Cannington-OW06-2,44.33876419067383,-79.04938507080078,265.177001953125,Bedrock - Undifferentiated (ORMGP),,20.0,261.7774353027344,86940,09/20/2006,12/31/2021
786921003,-379072133,3a Freellton,NICHOLSON NEIL,3a Freellton,43.395816802978516,-80.02771759033203,276.61041259765625,Bedrock - Undifferentiated (ORMGP),,3.6575927734375,269.37493896484375,508692,05/20/1971,01/01/2008
1191638155,-1383199411,SG4/00(COG),P U C,SG4/00(COG),43.543277740478516,-80.18570709228516,326.937255859375,,,20.116790771484375,327.9820556640625,131,10/23/1962,11/30/2000
730900158,730900235,Crawford DP CL1,HRCA - Crawford - DP CL1,Crawford DP CL1,43.47305261176609,-79.94557806083193,284.12823486328125,,,,286.3801574707031,66736,09/12/2012,06/16/2021
-1261492764,-1261492764,Cannington OW 99/2D,Durham - Cannington - OW 99-2D,Cannington-OW99-2D,44.34688949584961,-79.02986907958984,260.22601318359375,Bedrock - Undifferentiated (ORMGP),5.0,6.8000030517578125,256.24072265625,96665,02/15/2001,12/31/2021
-1104989540,-1104989540,Blackstock OW 00/1S,Durham - Blackstock - OW 00-1S,Blackstock OW00-1S,44.108375549316406,-78.81087493896484,276.385009765625,Channel - Silt (ORMGP),,6.0,275.1178894042969,46,02/15/2001,12/12/2002
-1096663494,1421491562,CRA-BH50A-07,BH 50A-07 (SE Collector),CRA-PZ50A-07,43.84486770629883,-79.14786529541016,144.5971221923828,Thorncliffe (ORMGP),5.079999923706055,21.33599853515625,144.21975708007812,38,01/23/2008,12/12/2011
-1088704495,-390911721,MW06-03,MW 06-03 (SE Collector),MW06-03,43.85416793823242,-79.17755889892578,181.85899353027344,Lower Newmarket (ORMGP),5.079999923706055,40.84320068359375,155.1987762451172,112,11/03/2003,06/27/2014
-926201575,-926201575,JHL OW 02-2S,Glen Acres - Uxbridge - OW 02-2S,JHL OW 02/2S,44.11371612548828,-79.12637329101562,266.3169860839844,Channel - Silt (ORMGP),,0.79998779296875,265.69091796875,164,04/18/2005,08/15/2019
-1539995108,-1260576574,Inglewood EW 1-1,Peel - Inglewood - EW 1-1,Inglewood EW 1-1,43.80187225341797,-79.93397521972656,285.6099853515625,Halton Till,7.5,1.54998779296875,283.47705078125,49,03/01/2004,04/30/2019
-1461264774,437605392,Alton EW 1-2,Peel - Alton - EW 1-2 (AMEC),Alton EW 1-2,43.85984802246094,-80.06661987304688,404.05999755859375,Mackinaw/Oak Ridges (ORMGP),6.349999904632568,6.150000095367432,397.9019470214844,103,01/28/2004,11/21/2014
-1359963398,-1359963398,Sunderland OW 01/1,Durham - Sunderland - OW 01-1,Sunderland-OW01-1,44.26472473144531,-79.05797576904297,261.04998779296875,Late Stage Glaciolacustrine-Glaciofluvial (ORMGP),,13.699996948242188,259.5757141113281,95,04/18/2005,05/16/2013
-1320773612,240000053,PGMN - LSRCA - W0000298-2 (41 ft) Baldwin,LSRCA - Baldwin BH 1/03 - Shallow (PGMN),PGMN - LSRCA - W0000298-2 (7m -s) 2018 TEST,44.26263427734375,-79.33592987060547,230.50340270996094,Mackinaw/Oak Ridges (ORMGP),,2.843780517578125,228.98931884765625,126996,02/20/2003,03/06/2018
-1320773612,600000008,PGMN - LSRCA - W0000298-2 (41 ft) Baldwin,LSRCA - Baldwin BH 1/03 - Shallow (PGMN),PGMN - LSRCA - W0000298-2 (7m -s) 2019 TEST,44.26263427734375,-79.33592987060547,230.50340270996094,Mackinaw/Oak Ridges (ORMGP),,2.8437840938568115,226.63706970214844,128509,03/24/2003,10/30/2018
-1320773612,1544090649,PGMN - LSRCA - W0000298-2 (41 ft) Baldwin,LSRCA - Baldwin BH 1/03 - Shallow (PGMN),PGMN - LSRCA - W0000298-2 (7m -s),44.26263427734375,-79.33592987060547,230.50340270996094,Mackinaw/Oak Ridges (ORMGP),5.079999923706055,2.8437840938568115,230.0297088623047,117031,02/20/2003,01/16/2017
80788,80788,Barrie PW 11,Barrie - Heritage PW 11,Barrie PW 11,44.38810348510742,-79.6856460571289,219.56610107421875,Sunnybrook (ORMGP),30.479999542236328,47.152557373046875,212.4451904296875,170,06/14/1984,12/29/2011
83764,83764,PGMN - LSRCA - W0000058,LSRCA - Fire Department (PGMN) (NESBITT HANDY ARCHI.),PGMN - LSRCA - W0000058,44.31708526611328,-79.53890228271484,226.084716796875,Upper Newmarket (ORMGP),12.699999809265137,10.972793579101562,224.62384033203125,65770,01/15/1988,05/12/2010
97635,97635,MOE OW #375A,Woodville - MINISTRY OF ENVIRONMENT (OWRC),MOE Obs Well #375A,44.3968505859375,-78.98821258544922,283.03289794921875,Bedrock - Undifferentiated (ORMGP),20.319997787475586,5.48638916015625,281.0254211425781,2196,06/09/1969,12/24/1980
65121806,780938359,Bolton TW 3-80,Peel - Bolton - TW 3-80,Bolton TW 3-80d,43.881473541259766,-79.74016571044922,214.75,Scarborough (ORMGP),,106.68000030517578,212.58106994628906,209150,10/07/2002,07/14/2016
65121806,545192336,Bolton TW 3-80,Peel - Bolton - TW 3-80,Bolton TW 3-80s,43.881473541259766,-79.74016571044922,214.75,Scarborough (ORMGP),,105.15599822998047,213.8595428466797,4352,10/07/2002,07/13/2016
83626559,9511469,CRA-MW45A-06,MW 45A-06 (SE Collector),CRA-MW45A-06,43.8432731628418,-79.10553741455078,98.51000213623047,Thorncliffe (ORMGP),5.079999923706055,12.192001342773438,99.87722778320312,57,03/16/2007,12/02/2013
120000008,1116179947,Newmarket MW 20,York - Newmarket - MW 20,Newmarket MW 20s,44.07566833496094,-79.47348022460938,254.6853485107422,Channel - Silt (ORMGP),7.619999885559082,13.106400489807129,254.63229370117188,231827,04/29/2013,03/30/2022
120000008,120000007,Newmarket MW 20,York - Newmarket - MW 20,Newmarket MW 20d,44.07566833496094,-79.47348022460938,254.6853485107422,Channel - Silt (ORMGP),7.619999885559082,64.92239379882812,227.869140625,231855,04/29/2013,03/30/2022
120000011,-1187483618,OGS-SS-13-01,Ont Geol Surv-SS-13-01 Egbert,OGS-SS-13-01,44.195838928222656,-79.8039779663086,219.79473876953125,Bedrock - Undifferentiated (ORMGP),6.349999904632568,77.55000305175781,218.3331756591797,58955,06/16/2014,11/07/2022
120000012,-1187483617,OGS-SS-13-02,Ont Geol Surv-SS-13-02 Adjala-Tosorontio,OGS-SS-13-02,44.05043029785156,-79.85603332519531,270.0010681152344,Thorncliffe (ORMGP),6.349999904632568,57.899993896484375,236.27972412109375,54181,10/29/2014,06/20/2022
120000026,120000013,Newmarket MW 15s,York - Newmarket - MW 15s,Newmarket MW 15s,44.05875015258789,-79.480712890625,267.5544738769531,Inter Newmarket Sediment (ORMGP),7.599999904632568,33.220001220703125,263.108154296875,159223,02/15/2013,03/30/2022
120000027,120000014,Newmarket MW 17,York - Newmarket - MW 17,Newmarket MW 17,44.024532318115234,-79.47366333007812,257.0686340332031,Sunnybrook (ORMGP),7.599999904632568,87.16999816894531,239.62123107910156,178330,03/08/2013,03/30/2022
120000433,120000244,Richmond Hill MW 11,York - Richmond Hill - MW 11,Richmond Hill MW 11,43.87379837036133,-79.4261474609375,217.55999755859375,Mackinaw/Oak Ridges (ORMGP),6.400000095367432,19.899993896484375,211.7595977783203,410544,05/23/2014,11/10/2020
137559089,972361621,Dufferin OW1-4,Milton Quarry - OW 1-4,OW1-4,43.55916976928711,-79.9781265258789,331.8373718261719,Bedrock - Undifferentiated (ORMGP),0.07599999755620956,5.160003662109375,328.8358154296875,89,11/12/1997,12/09/2003
186490029,-925731606,PGMN - NVCA - W0000245-2,NVCA - Midhurst MW1 Snow Valley (PGMN),PGMN - NVCA - W0000245-2,44.43519592285156,-79.74232482910156,239.80999755859375,Upper Newmarket (ORMGP),5.079999923706055,18.592803955078125,226.81918334960938,134465,09/10/2002,11/07/2022
203968051,-1681073563,CRA-York-MW12-00,Markham MW12-00 (SE Collector),CRA-York-MW12,43.898399353027344,-79.24234008789062,210.95550537109375,Thorncliffe (ORMGP),5.079999923706055,49.3800048828125,193.812744140625,143,01/04/2008,02/05/2016
241500461,241480844,CRA-BH77-07,BH 77-07 (SE Collector),CRA-BH 77-07,43.86238098144531,-79.17314147949219,185.66781616210938,,,,164.3828125,36,01/23/2008,09/19/2011
241500492,241480891,CRA-BH75-07,BH 75-07 (SE Collector),CRA-BH 75-07,43.860206604003906,-79.17222595214844,182.54977416992188,,,59.69999694824219,162.75335693359375,39,01/23/2008,08/17/2011
1107209998,1283654375,CAMC/YPDT - Earl Bales Park,CAMC/YPDT - Earl Bales,CAMC/YPDT-Earl Bales Deep,43.74958801269531,-79.43559265136719,184.03353881835938,Scarborough (ORMGP),6.349999904632568,81.38999938964844,144.74908447265625,129559,09/19/2005,04/25/2023
1107209998,2018158867,CAMC/YPDT - Earl Bales Park,CAMC/YPDT - Earl Bales,CAMC/YPDT-Earl Bales Shallow,43.74958801269531,-79.43559265136719,184.03353881835938,Lower Newmarket (ORMGP),3.809999942779541,7.3000030517578125,174.6073455810547,123645,09/08/2006,04/25/2023
1118703765,1118703765,Cannington DP 03-1,Durham - Cannington - DP 03-1,Cannington DP 03-1 (inside),44.34964370727539,-79.03285217285156,254.69119262695312,,,,254.74058532714844,19365,10/12/2004,04/19/2012
1118703765,360000429,Cannington DP 03-1,Durham - Cannington - DP 03-1,Cannington DP 03-1 (outside),44.34964370727539,-79.03285217285156,254.69119262695312,,,,254.8367462158203,36,06/19/2007,04/19/2012
1145112722,-984940824,Caledon East EW 2-1,Peel - Caledon East - EW 2-1 (AMEC),Caledon East EW 2-1,43.867584228515625,-79.86672973632812,289.1000061035156,Mackinaw/Oak Ridges (ORMGP),6.349999904632568,22.399999618530273,288.3356628417969,111784,01/15/2003,11/26/2014
1208474099,1208474099,Sunderland OW 01/2,Durham - Sunderland - OW 01-2,Sunderland-OW01-2,44.26408386230469,-79.05731964111328,260.2019958496094,Late Stage Glaciolacustrine-Glaciofluvial (ORMGP),,1.5,259.458251953125,94,05/11/2005,05/16/2013
1354432855,13464,Greenbank MW 4 (PW 4) (Hole 2),Durham - Greenbank - MW #4 (TH 2-89 - PW 4),Greenbank-MW4,44.15786361694336,-79.02135467529297,294.6000061035156,Lower Newmarket (ORMGP),15.239999771118164,32.003997802734375,286.00286865234375,5579,07/07/1989,06/06/2019
1360629927,1146924043,CRA-MW74B-07,MW 74B (SE Collector),CRA-MW74B-07,43.862525939941406,-79.2165756225586,178.24200439453125,Halton Till,5.079999923706055,7.010406494140625,176.7490997314453,69,03/08/2007,05/27/2010
1425783967,1000439900,TTC Y6-04,013810,TTY Y6-04,43.74641036987305,-79.40755462646484,142.0000457763672,Sunnybrook (ORMGP),,20.573997497558594,130.9123992919922,42,04/05/1967,07/18/1967
1434831324,1500769228,Dufferin BH46,Milton Quarry - BH 46,BH46,43.55880355834961,-79.97747802734375,332.72216796875,Bedrock - Undifferentiated (ORMGP),0.10199999809265137,10.79998779296875,330.4783020019531,101,12/23/1997,12/09/2003
1501572971,421249549,CRA-MW34A-05 (B),"CRA MW 34A-05, 34B-05 (SE Collector)",CRA-MW34A-05,43.8453369140625,-79.1270751953125,134.57992553710938,Lower Newmarket (ORMGP),,12.559928894042969,124.84220123291016,98,07/20/2005,07/07/2014
1501572971,1736051459,CRA-MW34A-05 (B),"CRA MW 34A-05, 34B-05 (SE Collector)",CRA-MW34B-05,43.8453369140625,-79.1270751953125,134.57992553710938,Lower Newmarket (ORMGP),5.079999923706055,6.19000244140625,131.56040954589844,98,12/29/2005,07/07/2014
1537857317,55820316,CRA-PW47-07,PW 47-07 (SE Collector),CRA-PW47-07,43.857948303222656,-79.1219482421875,154.24600219726562,Thorncliffe (ORMGP),6.0,39.92879867553711,133.10369873046875,65,01/23/2008,02/13/2014
968457776,-261393980,Halton Fed of Agr - Opsteen,"OPSTEEN,J",2809478,43.48468780517578,-80.01692962646484,302.62298583984375,Bedrock - Undifferentiated (ORMGP),,2.742985725402832,297.9989318847656,132,11/08/2001,12/02/2022
1876096446,-359703589,6810297,HAMILTON-WENTWORTH,6810297,43.34236145019531,-79.95954132080078,263.3572692871094,Bedrock - Undifferentiated (ORMGP),,28.651199340820312,253.0184326171875,458,08/24/1981,01/31/2008
-1208861451,-1208861451,Sunderland OW 03/1,Durham - Sunderland - OW 03-1,Sunderland-OW03-1,44.26480484008789,-79.057373046875,260.07000732421875,Late Stage Glaciolacustrine-Glaciofluvial (ORMGP),,6.100006103515625,259.3659362792969,94,04/18/2005,05/16/2013
-1187483626,-1187483626,Minesing T6-5A_13,NVCA - Minesing T6-5A_13,Minesing T6-5A_13_D,44.38220977783203,-79.83987426757812,183.89999389648438,Upper Newmarket (ORMGP),6.349999904632568,1.600006103515625,183.83180236816406,4055,05/27/2014,08/23/2018
-1187483626,1561857494,Minesing T6-5A_13,NVCA - Minesing T6-5A_13,Minesing T6-5A_13_S,44.38220977783203,-79.83987426757812,183.89999389648438,Mackinaw/Oak Ridges (ORMGP),6.349999904632568,0.3800048828125,183.84384155273438,4055,05/27/2014,08/23/2018
-1187483625,-1187483625,Minesing T6-5B_13,NVCA - Minesing T6-5B_13,Minesing T6-5B_13_D,44.381954193115234,-79.84124755859375,183.8699951171875,Upper Newmarket (ORMGP),6.349999904632568,1.660003662109375,183.8592987060547,13547,09/15/2014,08/23/2018
-956474949,-1595488288,Caledon East DP 13-02,Peel - Caledon East - DP 13-02,Caledon East DP 13-02d,43.8804931640625,-79.83433532714844,278.4200134277344,Halton Till,2.5399999618530273,3.990000009536743,279.132568359375,45,09/26/2002,12/15/2008
-956474949,-1036615043,Caledon East DP 13-02,Peel - Caledon East - DP 13-02,Caledon East DP 13-02s,43.8804931640625,-79.83433532714844,278.4200134277344,Halton Till,2.5,2.410003662109375,279.0147705078125,42,09/26/2002,06/05/2009
-914830272,-404966230,Dufferin BH42,Milton Quarry - BH 42,BH42,43.554988861083984,-79.97354125976562,339.8314208984375,Mackinaw/Oak Ridges (ORMGP),0.050999999046325684,4.470001220703125,335.56781005859375,113,11/03/1997,12/09/2003
-893757670,-779965549,Mount Albert MW 05D (OW 05-1D),York - Mount Albert - MW 5D - OW 05-1D,Mount Albert MW 5d,44.12967300415039,-79.306396484375,278.2200012207031,Thorncliffe (ORMGP),5.079999923706055,31.600006103515625,258.0049133300781,290301,07/21/2005,03/16/2022
-862607488,1016732239,Acton Pros Pk TW 3,Halton - Acton - OW 3,OW 3,43.62702560424805,-80.04690551757812,346.8339538574219,,,,344.15350341796875,78,07/02/1986,07/07/2005
117645,-1082107835,Aurora MW 11,York - Aurora - MW #11 - Chamber of Commerce (ONT HOSPITAL),Aurora MW 11,43.98017501831055,-79.46251678466797,283.91900634765625,Mackinaw/Oak Ridges (ORMGP),20.31999969482422,18.287994384765625,280.8409118652344,222278,11/09/1959,03/29/2022
118428,118428,Stouffville PW 6,York - Stouffville - PW 6,Stouffville PW 6,43.995643615722656,-79.27812194824219,304.9800109863281,Mackinaw/Oak Ridges (ORMGP),30.479999542236328,13.71600341796875,298.4344482421875,189224,01/13/1966,06/12/2022
118715,118715,Aurora PW 2 (TH 1/59),York - Aurora - PW 2 (TH 1/59) (TOWN OF AURORA),Aurora PW 2,44.00333786010742,-79.4710464477539,253.8300018310547,Scarborough (ORMGP),17.779998779296875,105.15599060058594,233.66038513183594,119648,06/24/1959,06/12/2022
118733,118733,Nobleton PW 3,York - Nobleton - PW 3,Nobleton PW 3,43.90323257446289,-79.65086364746094,263.50457763671875,Thorncliffe (ORMGP),30.479999542236328,83.21040344238281,233.6884765625,253462,01/06/1900,06/12/2022
119316,119316,Oak Ridges PW 2,York - Oak Ridges - PW 2,Oak Ridges PW 2,43.94353485107422,-79.45616912841797,295.64898681640625,Thorncliffe (ORMGP),15.239999771118164,102.71760559082031,259.60101318359375,221,01/11/1969,11/26/1997
122530,122530,Holland Landing (Private) Heiber,York - Holland Landing - Private - Heiber (SHEBER ANTON),HEIBER,44.12913131713867,-79.52705383300781,220.1256561279297,Scarborough (ORMGP),15.239999771118164,70.71360778808594,189.43130493164062,52,10/31/1974,01/19/2006
124875,2041349890,Mount Albert MW 15 (Franklin Well A) (OGS 11-AG-196),York - Mount Albert - MW 15 - fcwella (FRANKLIN TROUT FARM),Mount Albert MW 15,44.116241455078125,-79.32344818115234,244.74444580078125,Scarborough (ORMGP),15.239999771118164,56.99760437011719,242.30789184570312,327309,12/28/1978,03/22/2022
-1253699188,-875898428,CRA-PW65-07,PW 65-07 (SE Collector),CRA-PW65,43.841434478759766,-79.16387939453125,156.26499938964844,Lower Newmarket (ORMGP),,32.0,143.99925231933594,49,04/13/2007,06/15/2012
-1226600153,1866350399,CRA-MW68B-07,MW 68B-07 (SE Collector),CRA-MW68B-07,43.84370040893555,-79.14812469482422,145.43600463867188,Lower Newmarket (ORMGP),,12.899993896484375,143.0086669921875,78,03/16/2007,08/22/2014
-1187483636,-1187483636,Minesing T3-9,NVCA - Minesing T3-9,Minesing T3-9_S,44.38090515136719,-79.8353271484375,185.7899932861328,Late Stage Glaciolacustrine-Glaciofluvial (ORMGP),5.079999923706055,0.25,185.55941772460938,9050,09/15/2014,08/23/2018
-1153129791,1886953813,6808112,LUSH P & ASSOC LTD,6808112,43.28217697143555,-79.98595428466797,240.0,Bedrock - Undifferentiated (ORMGP),,12.496795654296875,229.31983947753906,524871,05/15/1972,01/01/2008
-991536360,1837989894,Dufferin BH35,Milton Quarry - BH 35,BH35,43.54934310913086,-79.9767074584961,335.422607421875,Bedrock - Undifferentiated (ORMGP),0.10199999809265137,3.029998779296875,321.7686767578125,56,11/19/1997,08/14/2001
-981901946,495636777,Acton Pros Pk TW 2,Halton - Acton - OW 2,ow2s,43.62685012817383,-80.04762268066406,346.94287109375,,,,345.3983154296875,584,08/21/1991,07/07/2005
-981901946,-374473405,Acton Pros Pk TW 2,Halton - Acton - OW 2,ow2D,43.62685012817383,-80.04762268066406,346.94287109375,,,,344.48114013671875,792,04/23/1986,07/07/2005
121117,121117,MOE OW #341A,GREENSIDES N,MOE Obs Well #341A,44.0159912109375,-79.55070495605469,308.822021484375,Upper Newmarket (ORMGP),,16.764007568359375,297.89093017578125,182,03/26/1971,10/28/1974
122754,122754,Holland Landing PW 1,York - Holland Landing - PW 1,Holland Landing PW 1,44.09467315673828,-79.47404479980469,247.4499969482422,Thorncliffe (ORMGP),20.319997787475586,70.7136001586914,227.31219482421875,279621,09/17/1974,06/12/2022
122971,122971,Holland Landing (Private) Tench (Sheppard),York - Holland Landing - Private (SHEPPARD E),Tench (Sheppard),44.14468765258789,-79.47750854492188,220.01336669921875,Scarborough (ORMGP),12.699999809265137,64.61759948730469,199.22021484375,50,08/29/1975,01/24/2006
124395,124395,Holland Landing PW 2 (TW1-77),York - Holland Landing - PW 2 (TW 1-77),Holland Landing PW 2,44.098697662353516,-79.47207641601562,240.22999572753906,Thorncliffe (ORMGP),20.319997787475586,63.83000183105469,218.01817321777344,132082,07/25/1977,06/12/2022
124664,1621705359,MOE OW #539A,WARDLAW GEORGE,MOE74_80 - Obs Wells  #539A,43.81136703491211,-79.64083099365234,193.54330444335938,Halton Till,2.322575807571411,6.820404052734375,193.03517150878906,323,01/01/1980,11/18/1980
124683,124683,Newmarket PW 14,York - Newmarket - PW 14,Newmarket PW 14,44.06903076171875,-79.4288101196289,285.54998779296875,Inter Newmarket Sediment (ORMGP),20.319997787475586,40.84320068359375,267.9692687988281,34845,02/15/1978,03/05/2014
125384,125384,Ballantrae (Private) Reesor,York - Ballantrae - Private (REESOR),REESOR,44.04943084716797,-79.32927703857422,326.18243408203125,Mackinaw/Oak Ridges (ORMGP),15.239999771118164,27.127197265625,300.7387390136719,114,10/15/1979,01/11/2006
127225,127225,Richmond Hill PW 12 (NE PW),York - Richmond Hill - PW 12  (1-84) (REGION OF YORK),Richmond Hill PW 12 (1/84),43.87379455566406,-79.42583465576172,225.22706604003906,Mackinaw/Oak Ridges (ORMGP),20.319997787475586,27.127197265625,209.86602783203125,392165,05/02/1984,12/06/2016
127227,127227,Richmond Hill MW 05 (MMDW-TW),York - Richmond Hill - MW 5 (Major Mac Dewatering Well - TW 1-82),Richmond Hill MW 5,43.873619079589844,-79.42609405517578,225.13037109375,Mackinaw/Oak Ridges (ORMGP),15.239999771118164,20.421600341796875,219.3642120361328,376387,05/06/1984,06/15/2022
128430,128430,Vandorf (Private) Heitzinger,"York - Vandorf - Private - Heitzinger (J, IRASLBUST)",Heitzinger (22 West Park Blvd),44.00060272216797,-79.39627838134766,296.15692138671875,Thorncliffe (ORMGP),15.239999771118164,90.22079467773438,251.1542510986328,36,01/22/1987,10/08/2002
128882,128882,Ballantrae (Private) COX,York - Ballantrae - Private (COX),COX,44.02348709106445,-79.34049987792969,336.79010009765625,Mackinaw/Oak Ridges (ORMGP),15.239999771118164,39.3192138671875,318.623779296875,114,11/16/1987,01/11/2006
129940,129940,Queensville MW 01,York - Queensville - MW 1 (TW 3-88),Queensville MW 1,44.14462661743164,-79.42646789550781,253.41000366210938,Thorncliffe (ORMGP),5.079999923706055,71.01840209960938,223.35011291503906,269422,06/29/1988,03/16/2022
130662,130662,Vandorf (Private) Dobrich,"York - Vandorf - Private - DOBRICH, PETER",Dobrich (13 Stonegate St),43.98723602294922,-79.3868408203125,314.8546142578125,Mackinaw/Oak Ridges (ORMGP),14.604999542236328,50.901611328125,265.3290100097656,78,04/23/1990,01/10/2006
132819,132819,Ballantrae PW 1,York - Ballantrae - PW 1,Ballantrae PW 1,44.03309631347656,-79.32048034667969,331.6499938964844,Channel - Sand (ORMGP),25.399999618530273,96.31680297851562,302.34674072265625,185074,02/06/1996,06/12/2022
132851,132851,Ballantrae MW 01 (TW 3-95),York - Ballantrae - MW 1 (TW 3-95),Ballantrae MW 1,44.03336715698242,-79.3204574584961,331.82000732421875,Channel - Sand (ORMGP),5.0799994468688965,103.02239990234375,302.3760681152344,453081,03/20/1997,03/28/2022
132988,132988,Newmarket (Private) Springford,"York - Newmarket - Private (SPRINGFORD, MIKE)",Newmarket (Private) Springford,44.0416259765625,-79.5345687866211,300.6033020019531,Sunnybrook (ORMGP),15.239999771118164,103.02239990234375,227.1709747314453,57,08/27/1996,01/12/2006
240725214,240722295,Richmond Hill PW 8,York - Richmond Hill - PW 8 (REGION OF YORK),Richmond Hill PW 8,43.87397384643555,-79.42585754394531,225.3246307373047,Mackinaw/Oak Ridges (ORMGP),29.209999084472656,18.55999755859375,208.23793029785156,689507,10/04/2010,04/28/2022
1000215994,1000217874,GHD MP18-15,York UYSS MP18-15,York UYSS MP18-15,44.030330657958984,-79.46294403076172,241.64743041992188,Late Stage Glaciolacustrine-Glaciofluvial (ORMGP),,0.6700000166893005,240.50869750976562,11462,04/16/2015,08/08/2016
1000216311,1000219954,GHD MP20-15,York UYSS MP20-15,York UYSS MP20-15,44.04118347167969,-79.4598388671875,240.38958740234375,Late Stage Glaciolacustrine-Glaciofluvial (ORMGP),,0.9700000286102295,239.7918701171875,2536,12/31/2015,05/25/2016
1101148753,33005118,Caledon East EW 3-2,Peel - Caledon East - EW 3-2 (AMEC),Caledon East EW 3-2,43.874916076660156,-79.8615493774414,294.8299865722656,Mackinaw/Oak Ridges (ORMGP),6.349999904632568,7.399993896484375,288.897705078125,107211,09/02/2004,06/01/2016
1000201644,1000279427,W0000002,HCA_PGMN-W0000002,W0000002-1,43.28355230287964,-79.99080276552232,241.28587341308594,Bedrock - Undifferentiated (ORMGP),,28.300003051757812,235.07737731933594,1109,06/06/2001,04/04/2005
1000246616,1000243631,W0000338,HRCA_PGMN-W0000338,W0000338-1,43.29767018450015,-79.91493556610936,147.41363525390625,Bedrock - Undifferentiated (ORMGP),,162.6999969482422,145.0478973388672,627,06/12/2003,11/14/2005
1000346237,1000274600,BH5,,BH5-III,43.5282760974984,-79.96595366018629,314.3943176269531,Bedrock - Undifferentiated (ORMGP),0.050999999046325684,27.839996337890625,292.4783935546875,66,07/21/1989,08/15/2000
-1597902056,37679,Port Perry MW 3 (PW 3),Durham - Port Perry - MW 3 (PW 3),Port Perry-MW3,44.066253662109375,-78.93238067626953,252.83700561523438,Mackinaw/Oak Ridges (ORMGP),60.959999084472656,31.699203491210938,250.0327606201172,5218,08/28/1967,10/31/2022
-1587352407,1679164166,CRA-BH26A-07,BH 26A-07 (SE Collector),CRA-BH26A-07,43.84789276123047,-79.1127700805664,126.35099792480469,Thorncliffe (ORMGP),2.5,37.94999694824219,108.62731170654297,39,01/23/2008,12/07/2011
-1514533642,-15463072,Caledon East DP 7-02,Peel - Caledon East - DP 7-02,Caledon East DP 7-02s,43.86021041870117,-79.87683868408203,292.3999938964844,Halton Till,2.5,1.45001220703125,292.5752258300781,19927,04/02/2002,11/27/2014
-1514533642,953764671,Caledon East DP 7-02,Peel - Caledon East - DP 7-02,Caledon East DP 7-02d,43.86021041870117,-79.87683868408203,292.3999938964844,Halton Till,2.5399999618530273,2.5399999618530273,292.6380920410156,19928,09/26/2002,11/27/2014
-1434921005,1107017379,Dufferin BH4,Milton Quarry - BH 4,BH4-III,43.5363655090332,-79.9556655883789,325.92413330078125,Bedrock - Undifferentiated (ORMGP),0.050999999046325684,31.82000732421875,296.0669250488281,43,01/10/1990,08/15/2000
87475,87475,PGMN - LSRCA - W0000408,LSRCA - W0000408 - Ramara (PGMN),PGMN - LSRCA - W0000408,44.47690963745117,-79.17744445800781,227.30419921875,Bedrock - Undifferentiated (ORMGP),15.239999771118164,6.705596923828125,221.14210510253906,86326,11/29/1990,05/27/2015
87475,600000011,PGMN - LSRCA - W0000408,LSRCA - W0000408 - Ramara (PGMN),PGMN - LSRCA - W0000408 2019 TEST,44.47690963745117,-79.17744445800781,227.30419921875,Bedrock - Undifferentiated (ORMGP),15.239999771118164,6.705599784851074,219.6859588623047,108690,01/27/2005,07/30/2019
87475,240000051,PGMN - LSRCA - W0000408,LSRCA - W0000408 - Ramara (PGMN),PGMN - LSRCA - W0000408 2018 TEST,44.47690963745117,-79.17744445800781,227.30419921875,Bedrock - Undifferentiated (ORMGP),15.239999771118164,6.705596923828125,220.8740692138672,111661,11/29/1990,10/30/2017
120000034,120000017,Stouffville MW 22s,York - Stouffville - MW 22s,Stouffville MW 22s,43.97600555419922,-79.22467803955078,278.6045227050781,Mackinaw/Oak Ridges (ORMGP),7.599999904632568,13.720000267028809,271.22674560546875,157358,02/06/2013,12/14/2020
120000428,120000238,Ansnorveldt PW 3,York - Ansnorveldt - PW #3,Ansnorveldt PW 3,44.082698822021484,-79.54304504394531,219.2598419189453,Channel - Silt (ORMGP),12.699999809265137,72.22999572753906,200.7967071533203,176338,05/16/2012,06/12/2022
130498282,360000424,Uxbridge DP 1,Durham - Uxbridge - DP 1,Uxbridge DP1 (outside),44.105857849121094,-79.11930084228516,263.09600830078125,,,,263.3414306640625,25355,05/11/2005,12/31/2021
130498282,130498282,Uxbridge DP 1,Durham - Uxbridge - DP 1,Uxbridge DP1 (inside),44.105857849121094,-79.11930084228516,263.09600830078125,Mackinaw/Oak Ridges (ORMGP),,1.0,263.35089111328125,54975,04/18/2005,12/31/2021
151693038,1294760162,PGMN - LowerTrentRCA - W0000212,LowerTrentRCA - Douglas Springs Well (PGMN),PGMN - LTRCA - W0000212,44.406219482421875,-77.43675231933594,156.7530059814453,Bedrock - Undifferentiated (ORMGP),,13.411200523376465,155.20359802246094,97165,10/10/2002,10/05/2016
187088918,187088918,Orono DP 98-1,Durham - Orono - DP 98-1,Orono-DP98-1 (inside),43.96779251098633,-78.62843322753906,131.02000427246094,Late Stage Glaciolacustrine-Glaciofluvial (ORMGP),,0.3000030517578125,131.18006896972656,125109,06/08/2004,12/31/2021
187088918,360000433,Orono DP 98-1,Durham - Orono - DP 98-1,Orono-DP98-1 (outside),43.96779251098633,-78.62843322753906,131.02000427246094,,,,131.12930297851562,34976,04/19/2005,12/31/2021
196733358,16677,Cannington MW 8 (PW 8),Durham - Cannington - MW 8 (PW 8),Cannington-MW8,44.34789276123047,-79.03042602539062,259.1709899902344,Bedrock - Undifferentiated (ORMGP),20.31999969482422,5.4864044189453125,255.3585662841797,5733,11/03/1997,09/29/2022
235164690,-1917377522,Dufferin OW1-3,Milton Quarry - OW 1-3,OW1-3,43.55944061279297,-79.97793579101562,332.017333984375,Bedrock - Undifferentiated (ORMGP),0.07599999755620956,5.19000244140625,329.1821594238281,89,11/12/1997,12/09/2003
1104824874,1104824874,Blackstock OW 00/2S,Durham - Blackstock - OW 00-2S,Blackstock OW00-2S,44.108543395996094,-78.8102798461914,275.9330139160156,Channel - Silt (ORMGP),,5.79998779296875,274.17303466796875,46,02/15/2001,12/12/2002
1119363068,-1405952944,CAMC/YPDT - Boston Mills Rd.,CVC - Boston Mills,ORMGP - Boston Mills Rd.,43.841426849365234,-79.85303497314453,300.80975341796875,Scarborough (ORMGP),7.619999885559082,158.49600219726562,280.7201232910156,116797,06/17/2005,08/11/2023
1265169145,754871238,Ballantrae MW 04 - 2 inch (TW 19-87),York - Ballantrae - MW 4 - 2 inch (TW 19/87),Ballantrae MW 4d - 2inch (BAL-TW-1987),44.050899505615234,-79.32514190673828,325.95001220703125,Thorncliffe (ORMGP),5.079999923706055,111.25,294.1159362792969,424071,10/28/1987,10/01/2020
1306369072,1306369072,Cannington OW 99/4S,Durham - Cannington - OW 99-4S,Cannington-OW99-4S,44.349552154541016,-79.03279113769531,256.4119873046875,Bedrock - Undifferentiated (ORMGP),5.0,4.0,255.11294555664062,100180,02/15/2001,12/31/2021
1545530241,-585091111,CRA-PW55-07,PW 55-07 (SE Collector),CRA-PW55,43.86491012573242,-79.17374420166016,189.0489959716797,Thorncliffe (ORMGP),,59.44000244140625,164.11293029785156,75,02/23/2007,11/15/2011
1980317339,636602304,MOE OW #374A,OWRC,MOE Obs Well #374A,43.51810073852539,-79.87171173095703,200.05474853515625,Halton Till,,3.3527984619140625,199.60910034179688,2217,09/02/1971,12/31/1980
-888553989,1227220768,Queensville MW 13,York - Queensville - MW 13 (YPDT-CAMC Queensville),Queensville MW 13d,44.14568328857422,-79.41832733154297,260.6400146484375,Scarborough (ORMGP),6.349999904632568,85.66000366210938,227.63075256347656,218031,12/23/2009,03/15/2022
-888553989,290480289,Queensville MW 13,York - Queensville - MW 13 (YPDT-CAMC Queensville),Queensville MW 13s,44.14568328857422,-79.41832733154297,260.6400146484375,Inter Newmarket Sediment (ORMGP),5.079999923706055,12.5,258.96514892578125,207741,12/23/2009,03/15/2022
119324,119324,Newmarket PW 09 (TW 6-69),York - Newmarket - PW 9 (TW 6-69),Newmarket PW 9,44.0682258605957,-79.42930603027344,285.4410095214844,Inter Newmarket Sediment (ORMGP),16.799999237060547,45.720001220703125,256.7474670410156,216,04/08/1969,02/19/1993
120980,120980,PGMN - TRCA - W0000006 (GA036),TRCA - Bruce's Mill (PGMN),PGMN - TRCA - W0000006,43.94286346435547,-79.35001373291016,246.4600067138672,Mackinaw/Oak Ridges (ORMGP),5.0799994468688965,10.363204956054688,236.60597229003906,175649,02/15/1971,06/16/2023
121116,121116,MOE OW #340A,COLTHAM A,MOE Obs Well #340A,44.051551818847656,-79.35134887695312,298.3052978515625,Late Stage Glaciolacustrine-Glaciofluvial (ORMGP),,8.534393310546875,293.26318359375,2052,03/26/1971,12/31/1980
124428,124428,Mount Albert PW 1,York - Mount Albert - PW 1,Mount Albert PW 1,44.12989807128906,-79.30946350097656,280.7200012207031,Thorncliffe (ORMGP),25.399999618530273,54.5592041015625,253.31619262695312,154744,10/24/1977,06/12/2022
124663,124663,MOE OW 538A,NOBLETON PUBLIC SCH,MOE Obs Well 538A,43.91123580932617,-79.64977264404297,266.12646484375,Halton Till,,6.400787353515625,264.9093322753906,176,01/15/1925,11/18/1980
124665,124665,MOE OW #540A,NOAKES H R,MOE Obs Well #540A,43.94325256347656,-79.50936126708984,289.68341064453125,Halton Till,,8.839202880859375,289.56134033203125,326,01/15/1925,11/20/1980
126573,126573,Ansnorveldt MW 3 (TW 2/82),York - Ansnorveldt - MW 3 (TW 2-82),Ansnorveldt MW 3,44.08554458618164,-79.54041290283203,218.53799438476562,Scarborough (ORMGP),3.174999952316284,87.17279052734375,202.13645935058594,392771,03/25/1982,12/18/2019
127226,127226,Richmond Hill DW 3-84 (PW-West?),York - Richmond Hill - DW 3-84 (REGION OF YORK),6917426,43.873531341552734,-79.42633819580078,225.66952514648438,Mackinaw/Oak Ridges (ORMGP),20.319997787475586,28.651199340820312,19.135251998901367,53,07/04/1984,08/01/2002
128278,128278,Vandorf (Private) Christamtsis,"York - Vandorf - Private - CHRISTAMTSIS, R.",Christamtsis (20 Lady Diana Court),44.00591278076172,-79.40264129638672,305.7688903808594,Inter Newmarket Sediment (ORMGP),15.239999771118164,35.661590576171875,271.2206726074219,79,03/10/1987,01/10/2006
129703,129703,Ballantrae MW 05 (TW 20-87),York - Ballantrae - MW 5 (TW 20/87),Ballantrae MW 5 (2 inch; active),44.036983489990234,-79.32166290283203,335.7300109863281,Mackinaw/Oak Ridges (ORMGP),5.079999923706055,32.51605224609375,300.489990234375,400346,11/17/1987,03/28/2022
129939,129939,Holland Landing MW 04 (TH 7-88),York - Holland Landing - MW 4 (TH 7-88),Holland Landing MW 4,44.10145568847656,-79.46277618408203,262.6199951171875,Scarborough (ORMGP),5.0799994468688965,105.15601348876953,214.2153778076172,276849,08/10/1988,07/26/2014
129941,129941,Queensville MW 02 (TW 8-88),York - Queensville - MW 2 (TW 8-88),Queensville MW 2 (2 inch),44.14435577392578,-79.4264144897461,253.99000549316406,Thorncliffe (ORMGP),5.079999923706055,71.01840209960938,219.75909423828125,444296,08/30/1988,03/16/2022
130910,130910,Queensville (Private) Lundy,"York - Queensville - Private (LUNDY, MARK)",Queensville (Private) Lundy (new),44.14901351928711,-79.40533447265625,280.5152587890625,Bedrock - Undifferentiated (ORMGP),12.699999809265137,100.88878631591797,223.7288055419922,50,11/01/1990,01/24/2006
132852,132852,Ballantrae PW 2,York - Ballantrae - PW 2,Ballantrae PW 2,44.03327560424805,-79.3205337524414,331.8800048828125,Channel - Sand (ORMGP),25.399999618530273,102.41281127929688,301.7803955078125,332496,12/18/1995,06/12/2022
1000216180,1000218780,GHD MP19-15,York UYSS MP19-15,York UYSS MP19-15,44.03290939331055,-79.46047973632812,244.04580688476562,Late Stage Glaciolacustrine-Glaciofluvial (ORMGP),,0.9700000286102295,242.88372802734375,9823,04/16/2015,11/29/2016
1000219421,1000223924,GHD MP25-15,York UYSS MP25-15,York UYSS MP25-15,44.06581115722656,-79.45684051513672,234.94137573242188,Late Stage Glaciolacustrine-Glaciofluvial (ORMGP),,0.9700000286102295,232.5989227294922,8861,04/16/2015,11/30/2016
1057325441,1554370362,CRA-PZ51B-07,BH 51B-07 (SE Collector),CRA-PZ51B-07,43.84453201293945,-79.14952850341797,148.25,Lower Newmarket (ORMGP),5.099999904632568,7.6199951171875,146.7344512939453,69,02/26/2008,08/22/2014
1078932164,1384645749,King City MW 4,York - King City - MW 4,King City MW 4,43.93364715576172,-79.53935241699219,278.6199951171875,Thorncliffe (ORMGP),5.0799994468688965,97.5360107421875,271.341796875,498551,05/28/2003,03/09/2022
1000129510,1000118608,W0000294,HCA_PGMN-W0000294-6-2,W0000294-1,43.29826547678641,-80.07489784931182,245.77206420898438,,,,243.84439086914062,376,03/13/2003,03/22/2004
-1641663764,-1894897369,50-I,City of Guelph - Eastview Landfill Detailed Till Studies,50-I,43.571398057914195,-80.23098858531534,361.0,,,38.70000076293945,340.9795837402344,68,07/31/2000,11/30/2000
1000025418,1000004841,Blue Spring 1 Shallow,PBSS1/00(COG),Blue Spring 1 Shallow (gw),43.557902402477424,-80.1177482491569,332.5,Late Stage Glaciolacustrine-Glaciofluvial (ORMGP),,0.04998779296875,331.1997375488281,165,07/31/2000,10/19/2001
731100099,731100113,North Oakville DP NO1,,HRCA - North Oakville - DP NO1 (Deep) - Inside,43.483306884765625,-79.7387466430664,173.55099487304688,Late Stage Glaciolacustrine-Glaciofluvial (ORMGP),,1.1300048828125,173.2289276123047,72988,10/25/2012,05/11/2022
20309,20309,2803152,MACNEILL DANA,2803152,43.64097595214844,-79.96357727050781,290.16815185546875,Upper Newmarket (ORMGP),,14.935211181640625,276.16949462890625,47,07/08/1969,09/26/1997
22281,22281,2808017,WATCH TOWER SOCIETY,2808017,43.65468978881836,-79.94674682617188,272.6112060546875,Inter Newmarket Sediment (ORMGP),12.699999809265137,13.41119384765625,260.3068542480469,1011,09/09/1992,11/21/2002
31403,31403,PGMN - CROWE - W0000243,CROWE - Crowe Bridge (CONS AUTHO CROWE VAL) (PGMN),PGMN - CROWE - W0000243,44.379119873046875,-77.75342559814453,166.7742919921875,Bedrock - Undifferentiated (ORMGP),,3.96240234375,162.42227172851562,100933,11/24/1971,05/11/2015
1398078,-2079507836,PGMN - NVCA - W0000480,NVCA - Thornton (PGMN ),PGMN - NVCA - W0000480-1,44.269657135009766,-79.72021484375,292.9119873046875,Upper Newmarket (ORMGP),15.239999771118164,30.175201416015625,288.2561340332031,78691,08/20/1991,11/09/2022
372759031,55819145,PGMN - KRCA - W0000432,KRCA - Lindsay Memorial Park (PGMN),PGMN - KRCA - W0000432,44.3424186706543,-78.7308349609375,253.15151977539062,Bedrock - Undifferentiated (ORMGP),15.239999771118164,9.449996948242188,249.89491271972656,94675,01/26/2005,07/19/2019
1000095856,120000702,Inspec-Sol BH04-12,,Inspec-Sol BH4-12,44.068153381347656,-79.45681762695312,231.9600067138672,Mackinaw/Oak Ridges (ORMGP),5.099999904632568,2.0,231.22494506835938,27559,04/23/2019,11/17/2020
240853577,120000241,Nobleton PW 5,York - Nobleton - PW 5,Nobleton PW 5,43.89811706542969,-79.65218353271484,260.67266845703125,Scarborough (ORMGP),30.479999542236328,98.1500015258789,238.22030639648438,699709,05/23/2012,06/12/2022
1000215490,1000216879,GHD MP7-13,York UYSS MP7-13,York UYSS MP7-13,44.07225036621094,-79.45360565185547,230.00343322753906,Mackinaw/Oak Ridges (ORMGP),,0.5899999737739563,229.18234252929688,5586,05/23/2013,11/29/2016
1000217109,1000221372,GHD MP21-15,York UYSS MP21-15,York UYSS MP21-15,44.04182434082031,-79.46072387695312,242.15878295898438,Late Stage Glaciolacustrine-Glaciofluvial (ORMGP),,0.9700000286102295,240.12945556640625,11959,04/17/2015,12/02/2016
1000218580,1000222629,GHD MP23-15,York UYSS MP23-15,York UYSS MP23-15,44.05534362792969,-79.455078125,237.06033325195312,Late Stage Glaciolacustrine-Glaciofluvial (ORMGP),,0.9700000286102295,234.1220245361328,12331,04/16/2015,11/30/2016
1039108987,1413256543,16007,SLATER J,6707756,43.54420852661133,-80.1523208618164,366.0,Bedrock - Undifferentiated (ORMGP),,70.92999267578125,333.10845947265625,254,10/17/1983,10/22/2001
1065750121,-389882250,Aurora MW 08 (WMI - OW 25/95 A),York - Aurora - MW #8 - WMI - OW 25-95 A,Aurora MW 8,43.98652267456055,-79.4391860961914,280.1570129394531,Thorncliffe (ORMGP),50.0,74.69999694824219,249.16188049316406,511771,07/27/2001,03/29/2022
1084274425,1084274425,Greenbank SW 3-05,Durham - Greenbank - SW05-3,Greenbank-SW05-3,44.1512565612793,-79.01423645019531,298.67999267578125,Inter Newmarket Sediment (ORMGP),5.079999923706055,28.346405029296875,289.7448425292969,153,05/05/2006,08/14/2019
1000071743,1000159524,MP9,MP9,MP9 (in),43.43456950949949,-79.98918611564854,281.510009765625,Bedrock - Undifferentiated (ORMGP),,0.9000244140625,280.50811767578125,36,01/22/2003,04/09/2003
1000026519,1000007298,Blue Springs 2 Shallow,PBSS2/00(COG),Blue Springs 2 Shallow (gw),43.5553130466125,-80.12058406355695,334.0,Late Stage Glaciolacustrine-Glaciofluvial (ORMGP),,0.20001220703125,335.06170654296875,165,07/31/2000,10/19/2001
1000026199,1000006556,Spring S Deep,PSSD/00(COG),Spring S Deep (gw),43.56019159784404,-80.16355184633252,322.0,Thorncliffe (ORMGP),,1.5,317.5892028808594,165,07/31/2000,10/19/2001
731100100,731100115,North Oakville DP NO2,,HRCA - North Oakville - DP NO2 (sh) - Inside,43.483306884765625,-79.7387466430664,173.56900024414062,Late Stage Glaciolacustrine-Glaciofluvial (ORMGP),,0.25,173.553466796875,28674,01/22/2013,11/22/2021
18832,18832,MOE OW #437A,MINISTRY OF ENVIRONMENT (OWRC),MOE Obs Well #437A,43.603267669677734,-80.04862976074219,,Bedrock - Undifferentiated (ORMGP),17.779998779296875,4.876800537109375,365.8251037597656,2320,02/24/1966,12/31/1980
23109,23109,MOE OW #209A,WILSON R,MOE Obs Well #209A,44.399635314941406,-77.34807586669922,,Bedrock - Undifferentiated (ORMGP),15.239999771118164,2.4384002685546875,159.94244384765625,1104,08/29/1949,11/05/1980
20603,20603,2803838,BURT D,2803838,43.64622497558594,-79.94680786132812,274.4051818847656,Upper Newmarket (ORMGP),12.699999809265137,13.106399536132812,263.69146728515625,53,04/25/1972,04/03/2003
20914,20914,Acton PW Prospect Park 1,Halton - Acton - Prospect Park PW 1 (TOWN OF ACTON),Acton Prospect Park PW 1,43.62694549560547,-80.0479965209961,346.9473876953125,Lower Newmarket (ORMGP),25.399999618530273,17.67840576171875,343.4193115234375,649,12/14/1973,07/08/2005
22175,22175,2807810,GRAHAM G.,2807810,43.6426887512207,-79.95378875732422,281.92828369140625,Mackinaw/Oak Ridges (ORMGP),,21.03118896484375,276.5843505859375,51,05/16/1991,10/30/1997
22232,22232,2807932,WATCHTOWER SOCIETY,2807932,43.65531921386719,-79.94684600830078,273.5539855957031,Inter Newmarket Sediment (ORMGP),25.399999618530273,12.496795654296875,265.10400390625,97,11/18/1991,09/10/2002
372749208,55809322,6814064,MOE Well 2010 - Name Witheld by MOE,6814064,43.40571594238281,-79.97557830810547,272.0,Bedrock - Undifferentiated (ORMGP),,17.699996948242188,255.0992431640625,481282,03/05/2004,01/01/2008
1000095763,1000067471,GHD BH-003-15(MW),,GHD BH-03-15 (MW),44.07170867919922,-79.45368194580078,231.9600067138672,Mackinaw/Oak Ridges (ORMGP),5.0,2.4600000381469727,230.2638397216797,49746,02/20/2015,04/23/2019
1000132062,1000102558,GHD BH-066-15(MW),,GHD BH-66-15(MW),44.042266845703125,-79.46003723144531,241.33999633789062,Mackinaw/Oak Ridges (ORMGP),5.0,6.429999828338623,241.25387573242188,25209,04/21/2015,04/23/2019
1000170326,1000166543,GHD BH-260-16(MW),,GHD BH-260-16(MW)S,44.03622055053711,-79.45899200439453,244.63999938964844,Mackinaw/Oak Ridges (ORMGP),5.0,3.369999885559082,243.9373321533203,25207,09/01/2016,04/23/2019
1000170326,1000166833,GHD BH-260-16(MW),,GHD BH-260-16(MW)D,44.03622055053711,-79.45899200439453,244.63999938964844,Channel - Silt (ORMGP),5.0,15.289999961853027,244.21249389648438,25208,11/01/2016,04/23/2019
240001852,240001598,Milton - Walkers Line TW 1-90,Halton - Milton - Walkers Line TW 1-90,Milton - Walkers Line TW 1-90,43.46236036096921,-79.9244956753148,219.29080200195312,Upper Newmarket (ORMGP),5.079999923706055,3.048004150390625,209.7637481689453,698,01/20/1990,07/28/2005
1003596688,240381147,Alton TW1-18,MOE Well 20190509 - Name Witheld by MOE,ALT TW1-18,43.863434469390135,-80.06595776018928,395.3999938964844,Bedrock - Undifferentiated (ORMGP),14.0,41.79998779296875,392.946044921875,34088,01/02/2018,06/22/2023
-1794346793,1748188636,PGMN - HRCA - W0000030-1,HRCA - Suez (ZENON) (PGMN),PGMN - HRCA - W0000030-1,43.43508996029283,-79.79015537255098,154.16000366210938,Bedrock - Undifferentiated (ORMGP),5.079999923706055,42.51959991455078,124.9192123413086,137320,11/19/1998,05/27/2020
49279,49279,Caledon Village OW 1-91 d,Peel - Caledon Village - OW 1d-91,Caledon Village OW 1d,43.85843432459853,-80.04596488235892,393.7099914550781,Mackinaw/Oak Ridges (ORMGP),3.809999942779541,67.05999755859375,390.11993408203125,123652,06/14/1991,06/23/2023
360000090,360000081,Palgrave SG 2-01,Peel - Palgrave SG 2-01,Palgrave SG 2-01,43.95585716896803,-79.84449229547764,273.3599853515625,,,,273.5494689941406,12611,05/09/2014,06/22/2023
-847483638,-847483636,Caledon East OW 6s,Peel - Caledon East - OW 6s,Caledon East OW 6s,43.85434076709127,-79.83553017267711,295.45458984375,Mackinaw/Oak Ridges (ORMGP),5.079999923706055,15.5447998046875,284.7183532714844,17131,05/25/2020,06/22/2023
-2147483445,-2147483537,Caledon East SG 9A-07 US,Peel - Caledon East - SG 9A-07 US,Caledon East SG 9A/07 US,43.87779566224892,-79.87694592986315,312.1300048828125,,,,312.3316345214844,40129,04/11/2011,06/21/2023
47000,148614,Palgrave PW 2,Peel - Palgrave - PW 2 (Coventry Gray Homes),Palgrave PW 2,43.95484495900725,-79.81858822941652,287.0,Mackinaw/Oak Ridges (ORMGP),30.479999542236328,39.928802490234375,283.32666015625,334,08/29/1975,03/27/2023
241639905,241626406,Caledon East EW 4-17D,Peel - Caledon East - EW4-17D,Caledon East EW4-17D,43.87263882563937,-79.86351380526473,294.489990234375,Mackinaw/Oak Ridges (ORMGP),6.0,36.899993896484375,287.6954345703125,65939,09/12/2017,06/21/2023
1238449204,148534,Cannington MW 2 (PW 2),Durham - Cannington - MW 2 (PW 2) (TH 1-59),Cannington-MW2 (Raw),44.34385299682617,-79.0575180053711,259.05999755859375,Mackinaw/Oak Ridges (ORMGP),25.399999618530273,9.906005859375,55.30657958984375,6638,06/25/1959,09/30/2022
1239363830,-778171940,PGMN - LSRCA - W0000283-1,LSRCA - Sheppards Bush (1/03) (PGMN),PGMN - LSRCA - W0000283,43.9945068359375,-79.4571304321289,270.82879638671875,Channel - Silt (ORMGP),5.079999923706055,24.384002685546875,266.8912353515625,87563,03/25/2003,06/02/2015
1289918417,-240826849,PGMN - TRCA - W0000330,TRCA 330-1 - Peel - Caledon East EW 3-1 (PGMN),PGMN - TRCA - W0000330,43.87397003173828,-79.86591339111328,295.7699890136719,Mackinaw/Oak Ridges (ORMGP),6.349999904632568,21.04998779296875,289.6230773925781,134557,01/15/2003,06/21/2023
1296180696,1296180696,Greenbank SW 2-05,Durham - Greenbank - SW05-2,Greenbank-SW05-2,44.16315841674805,-79.03086853027344,317.48699951171875,Inter Newmarket Sediment (ORMGP),,24.384002685546875,308.63616943359375,153,05/05/2006,08/14/2019
1315526223,1315526223,Cannington OW 99/1S,Durham - Cannington - OW 99-1S,Cannington-OW99-1S,44.3478889465332,-79.03031158447266,258.989013671875,Thorncliffe (ORMGP),5.0,3.600006103515625,256.3758850097656,143,02/15/2001,05/14/2013
1435597208,196437116,PGMN - TRCA - W0000366,TRCA - Heart Lake Beach (PGMN),PGMN - TRCA - W0000366,43.73940658569336,-79.79131317138672,253.47999572753906,Mackinaw/Oak Ridges (ORMGP),5.079999923706055,13.800003051757812,243.73348999023438,170326,09/30/2003,06/23/2023
1443398711,1470919437,MW10A-03,MW 10A-03 (SE Collector),MW10A-03,43.87326431274414,-79.17804718017578,192.21200561523438,Lower Newmarket (ORMGP),5.079999923706055,47.24400329589844,181.69549560546875,130,10/22/2003,07/02/2014
343739941,-1067414515,6810421,HAMILTON-WENTWORTH,6810421,43.39616775512695,-80.03739929199219,281.720947265625,Bedrock - Undifferentiated (ORMGP),,21.03118896484375,264.5655822753906,247,01/12/1982,01/31/2008
-728142003,-154898856,Acton TW 4-91 (Prospect Park),Halton - Acton - TW 4-91,Acton TW 4-91 d,43.627031954030265,-80.04774872866666,347.2958679199219,Thorncliffe (ORMGP),5.079999923706055,21.329986572265625,340.22589111328125,3858,07/30/1991,07/07/2005
-1650753103,-651428895,6810361,HAMILTON-WENTWORTH,6810361,43.26545333862305,-79.9990463256836,199.03823852539062,Bedrock - Undifferentiated (ORMGP),,8.839202880859375,197.1175994873047,311,01/12/1982,01/31/2008
-1278319270,-1278319270,Greenbank OW 1-03,Durham - Greenbank - OW 03-1,Greenbank-OW03-1,44.16047668457031,-79.02670288085938,317.15301513671875,Inter Newmarket Sediment (ORMGP),5.099999904632568,25.5,308.18939208984375,91818,04/20/2005,12/31/2021
-1187483628,-1187483628,Minesing T6-3B_13,NVCA - Minesing T6-3B_13,Minesing T6-3B_13_D,44.382877349853516,-79.84343719482422,183.77000427246094,Upper Newmarket (ORMGP),6.349999904632568,1.5500030517578125,183.8932342529297,13109,05/27/2014,08/23/2018
-1187483628,2002559170,Minesing T6-3B_13,NVCA - Minesing T6-3B_13,Minesing T6-3B_13_S,44.382877349853516,-79.84343719482422,183.77000427246094,Upper Newmarket (ORMGP),6.349999904632568,0.42999267578125,183.77481079101562,8536,05/27/2014,11/09/2015
-1187483627,-1187483627,Minesing T6-4,NVCA - Minesing T6-4,Minesing T6-4_D,44.38259506225586,-79.84231567382812,183.9600067138672,Upper Newmarket (ORMGP),5.079999923706055,1.6399993896484375,183.972900390625,4055,05/27/2014,11/09/2015
-1187483627,1362095180,Minesing T6-4,NVCA - Minesing T6-4,Minesing T6-4_S,44.38259506225586,-79.84231567382812,183.9600067138672,Mackinaw/Oak Ridges (ORMGP),5.079999923706055,0.1399993896484375,183.97825622558594,4053,05/27/2014,11/09/2015
-1100711145,-498814349,PGMN - LSRCA - W0000293-3 (Old Barrie Rd 2/03),LSRCA - Oro Pit BH 2 (LAKE SIMCOE REG. CA.) (PGMN),PGMN - LSRCA - W0000293-3,44.52738571166992,-79.5738754272461,332.58880615234375,Upper Newmarket (ORMGP),5.079999923706055,22.860015869140625,317.4156494140625,93071,03/18/2003,01/13/2015
-1062987977,1148419756,Schomberg MW 02 (TW 1-80),York - Schomberg - MW 2 - TW 1-80,Schomberg MW 2,44.00692367553711,-79.68695831298828,228.5260009765625,Sunnybrook (ORMGP),5.079999923706055,86.25839233398438,237.29669189453125,208467,03/14/1980,02/22/2008
-1011402135,148694,Aurora MW 10 (Bayview TW 1),York - Aurora - MW #10 - Bayview TW #1 (TH 1-87),Aurora MW 10,44.0123291015625,-79.44332122802734,261.1600036621094,Thorncliffe (ORMGP),15.239999771118164,64.00800323486328,245.685791015625,19515,01/11/1987,07/23/2004
-1001841772,-1001841772,Cannington SW 04/2,Durham - Cannington - SW 04-2,Cannington-SW04-2,44.34004211425781,-79.02425384521484,281.239990234375,Lower Newmarket (ORMGP),5.099999904632568,12.399993896484375,279.0036315917969,169,04/18/2005,08/13/2019
118429,118429,Stouffville PW 5,York - Stouffville - PW 5,Stouffville PW 5,43.997135162353516,-79.2757568359375,308.9179992675781,Mackinaw/Oak Ridges (ORMGP),58.41999816894531,7.010400295257568,305.0960693359375,151999,03/01/1960,06/12/2022
121258,121258,Holland Landing (Private) Fraser/Evans,York - Holland Landing - Private Evans/Fraser (FRASER D),Evans/Fraser,44.08113098144531,-79.49848175048828,288.1393127441406,Bedrock - Undifferentiated (ORMGP),10.159998893737793,148.13279724121094,247.08187866210938,4114,10/23/1972,01/24/2006
122814,122814,Queensville (Private) Hogue-Oldest,York - Queensville - Private - Hogue (Oldest) (SALBFRED CONST),Queensville (Private) Hogue-Oldest,44.152835845947266,-79.38898468017578,265.0337829589844,Lower Newmarket (ORMGP),12.699999809265137,21.945600509643555,239.38526916503906,27751,04/15/1973,06/02/1999
124390,124390,Newmarket PW 13,York - Newmarket - PW 13 (Formerly Yonge #3),Newmarket PW 13,44.03119659423828,-79.47381591796875,269.69000244140625,Scarborough (ORMGP),25.399999618530273,100.27921295166016,234.2023468017578,208094,05/30/1977,06/12/2022
126298,126298,WMI - NEW,WMI - Bayview Landfill - York - MW - New Well (MANAGEMENT WASTE),WMI - NEW,43.97703552246094,-79.43679809570312,293.31634521484375,Sunnybrook (ORMGP),15.239999771118164,114.30000305175781,243.26719665527344,49,06/15/1982,01/19/2006
127035,127035,Newmarket (Private) Pacione,York - Newmarket - Private (PACIONE J),Newmarket (Private) Pacione J,44.040382385253906,-79.54283905029297,258.3828125,Scarborough (ORMGP),12.699999809265137,79.24800109863281,225.22271728515625,47,09/19/1984,01/12/2006
127249,127249,Vandorf (Private) Asuncion,York - Vandorf - Private - Asuncion (GHADERY M),Asuncion (16 Marilyn Ave),44.0053825378418,-79.39691162109375,303.48590087890625,Thorncliffe (ORMGP),15.239999771118164,56.08319091796875,256.1402587890625,55,07/10/1984,01/10/2006
127604,127604,Holland Landing (Private) Whitfield,"York - Holland Landing - Private (WHITFIELD, D.)",Whitfield,44.100833892822266,-79.47694396972656,238.80006408691406,Thorncliffe (ORMGP),15.239999771118164,56.69279479980469,219.1484832763672,49,01/16/1986,01/24/2006
127887,127887,Holland Landing (Private) Martin,York - Holland Landing - Private - Martin,Martin,44.121543884277344,-79.47046661376953,250.0060272216797,Scarborough (ORMGP),15.239999771118164,77.7239990234375,211.9776153564453,50,06/02/1986,01/24/2006
129679,129679,Stouffville MW 15,York - Stouffville - MW 15 (TW 18-87),Stouffville MW 15 (2 inch),43.97669982910156,-79.22283935546875,274.5,Scarborough (ORMGP),5.079999923706055,115.82400512695312,231.4248046875,164424,10/21/1987,10/19/2009
1000346237,1000056404,BH5,,BH5-I,43.5282760974984,-79.96595366018629,314.3943176269531,Bedrock - Undifferentiated (ORMGP),0.050999999046325684,43.339996337890625,288.4103088378906,35,07/21/1989,08/15/2000
1000346237,1000202205,BH5,,BH5-IV,43.5282760974984,-79.96595366018629,314.3943176269531,Bedrock - Undifferentiated (ORMGP),0.050999999046325684,16.639984130859375,300.2515869140625,66,07/21/1989,08/15/2000
1000133809,1000332734,W0000296,HCA_PGMN-W0000296-7-1,W0000296-1,43.3659109009306,-80.10823080302663,268.95098876953125,Bedrock - Undifferentiated (ORMGP),,10.600006103515625,259.25921630859375,373,03/13/2003,03/19/2004
1000173042,1000399771,W0000001,HRCA_PGMN-W0000001,W0000001-1,43.424774843535154,-79.94456582852419,262.29364013671875,Bedrock - Undifferentiated (ORMGP),,3.175994873046875,258.1224670410156,1265,04/06/2001,04/04/2005
-1736488398,856164980,17-I,City of Guelph - Landfill,17-I,43.5724272807152,-80.22605895855416,346.239990234375,,,23.399999618530273,340.3624267578125,167,07/31/2000,10/19/2001
1000025282,1000004657,Blue Spring 1 Deep,PBSD1/00(COG),Blue Spring 1 Deep (gw),43.557902402477424,-80.1177482491569,332.5,Late Stage Glaciolacustrine-Glaciofluvial (ORMGP),,0.5,331.7197570800781,165,07/31/2000,10/19/2001
20289,20289,Georgetown PW 5 (Princess Anne),Halton - Georgetown - PW 5 (Princess Anne) (TOWN OF GEORGETOWN),Georgetown PW 5 (Princess Anne),43.646446228027344,-79.93171691894531,260.72137451171875,Mackinaw/Oak Ridges (ORMGP),30.479999542236328,23.31719970703125,250.87539672851562,3611,04/23/1969,12/31/2007
22280,22280,2808016,WATCH TOWER SOCIETY,2808016,43.655948638916016,-79.94664764404297,274.7320556640625,Inter Newmarket Sediment (ORMGP),12.699999809265137,15.239990234375,259.8047790527344,1033,09/16/1992,11/22/2002
26343,26343,PGMN - LowerTrentRCA - W0000172,LowerTrentRCA - W0172 (MASON NORM) (PGMN),PGMN - LTRCA - W0000172,44.280006408691406,-77.56301879882812,119.89707946777344,Bedrock - Undifferentiated (ORMGP),,13.411200523376465,116.4339370727539,9030,04/02/1974,10/05/2016
1398518,-1792730926,PGMN - NVCA - W0000230-1,NVCA - Borden deep (PGMN),PGMN - NVCA - W0000230-1,44.30192565917969,-79.90570831298828,200.40199279785156,Sunnybrook (ORMGP),5.079999923706055,56.08320617675781,193.86688232421875,124500,10/12/1993,11/08/2022
372750358,55810472,Wyndance Golf - MW2s/05,Wyndance GC - MW2s/05,Wyndance GC MW2s/05,44.04885482788086,-79.17403411865234,346.5211181640625,Upper Newmarket (ORMGP),12.699999809265137,33.832794189453125,321.27593994140625,318728,10/17/2005,06/29/2018
372768131,-1822013722,Vandorf MW 3D,York - Vandorf - MW 3D (Woodbine & Bloomington Deep),Vandorf MW 3d,43.97903060913086,-79.38605499267578,314.16400146484375,Thorncliffe (ORMGP),15.239999771118164,122.22479248046875,268.5440673828125,221215,07/31/2007,03/29/2022
1000135591,1000103895,GHD BH-078-15(MW),,GHD BH-78-15(MW),44.03704071044922,-79.45974731445312,240.60000610351562,Mackinaw/Oak Ridges (ORMGP),5.0,6.769999980926514,240.9009246826172,26642,05/01/2015,11/17/2020
1000148129,1000127258,GHD BH-209-16(MW),,GHD BH-209-16(MW)S,44.06761932373047,-79.45748138427734,233.1300048828125,Mackinaw/Oak Ridges (ORMGP),5.0,3.5299999713897705,230.63401794433594,25121,09/01/2016,04/23/2019
1000148129,1000127325,GHD BH-209-16(MW),,GHD BH-209-16(MW)D,44.06761932373047,-79.45748138427734,233.1300048828125,Channel - Silt (ORMGP),5.0,15.289999961853027,231.78973388671875,25122,09/01/2016,04/23/2019
1000173398,1000175381,Newmarket MW 37 (GHD BH-266-16),York - Newmarket MW 37 (York UYSS MW266-26),Newmarket MW 37d (GHD BH-266-16),44.040279388427734,-79.45957946777344,241.44000244140625,Channel - Silt (ORMGP),5.0,19.709999084472656,243.3874053955078,60077,10/01/2016,03/30/2022
1000173398,1000174895,Newmarket MW 37 (GHD BH-266-16),York - Newmarket MW 37 (York UYSS MW266-26),Newmarket MW 37s (GHD BH-266-16),44.040279388427734,-79.45957946777344,241.44000244140625,Mackinaw/Oak Ridges (ORMGP),5.0,3.5299999713897705,239.95875549316406,42018,03/26/2019,03/30/2022
240001860,240001607,PGMN - HRCA - W0000337-1,HRCA - Courtcliffe Park (PGMN),PGMN - HRCA - W0000337-1,43.387893751510326,-79.99355003691416,257.8500061035156,Bedrock - Undifferentiated (ORMGP),5.079999923706055,16.764007568359375,256.22119140625,135424,03/27/2003,10/14/2020
-1277672895,1601977576,PGMN - HRCA - W0000005-1,HRCA - Garden Lane (CORP - FLAMBOROUGH) (PGMN),PGMN - HRCA - W0000005-1,43.36687780137916,-79.95543296353966,263.79998779296875,Upper Newmarket (ORMGP),15.875,12.496795654296875,258.1826171875,158176,04/15/1997,03/19/2021
-324806571,1001084757,Caledon Village DP 7-04,Peel - Caledon Village - DP 7-04,Caledon Village DP 7-04d,43.85651932885193,-80.04845909930845,388.05999755859375,Mackinaw/Oak Ridges (ORMGP),3.799999952316284,1.69000244140625,386.07293701171875,41,02/27/2008,06/30/2015
1209095088,1612139979,PGMN - HRCA - W0000125-1,HRCA - Union Gas (CONSERVATION HALTON) (PGMN),PGMN - HRCA - W0000125-1 d,43.50786493537411,-79.85045576831855,196.80938720703125,Bedrock - Undifferentiated (ORMGP),5.079999923706055,11.88720703125,193.61953735351562,141103,12/06/2001,01/15/2021
240402951,240392804,Inglewood DP 6-20D,Peel - Inglewood - DP 6-20D,Inglewood DP 6-20D,43.81337682855985,-79.9345663681517,271.760009765625,Mackinaw/Oak Ridges (ORMGP),6.400000095367432,4.5,270.6219482421875,28901,04/21/2020,06/23/2023
49723,49723,Inglewood PW 3,Peel - Inglewood - PW 3,Inglewood PW 3,43.811603402007194,-79.93074351753066,272.1600036621094,Sunnybrook (ORMGP),30.479999542236328,48.76800537109375,269.5998229980469,1038,06/23/1995,06/29/2023
372755713,55815827,Palgrave EW 3-3d,Peel - Palgrave - EW 3-3d,Palgrave EW 3-3d,43.96103318285708,-79.8276021476694,295.4800109863281,Thorncliffe (ORMGP),7.619999885559082,75.60000610351562,281.9773864746094,46828,01/25/2006,06/22/2023
46653,46653,Palgrave OW 6/72,Peel - Palgrave - OW 6/72 (Albion Ridges Estates),Palgrave OW 6/72d,43.954917357779,-79.81862418485835,287.4200134277344,Mackinaw/Oak Ridges (ORMGP),5.079999923706055,43.900001525878906,282.89813232421875,240015,06/28/1972,06/22/2023
46653,-1694675155,Palgrave OW 6/72,Peel - Palgrave - OW 6/72 (Albion Ridges Estates),Palgrave OW 6/72s,43.954917357779,-79.81862418485835,287.4200134277344,Mackinaw/Oak Ridges (ORMGP),3.174999952316284,45.400001525878906,282.8066101074219,266862,06/28/1972,06/22/2023
730900140,730900160,Courtice - 1604 Bloor St,Durham - Courtice - Private - Bloor St,Courtice - 1604 Bloor St,43.89468432096708,-78.78619846817047,124.31999969482422,,,,121.7359848022461,22728,10/06/2020,05/02/2022
1000020959,1000010251,GAL-West Vaughan-BH-15-013,,BH-15-13,43.81310140880575,-79.62901927731708,160.34800720214844,Thorncliffe (ORMGP),,9.753600120544434,160.61083984375,52140,08/12/2015,10/20/2021
1000000425,1000001785,GAL-West Vaughan-BH-15-002,,BH-15-02,43.83496214866718,-79.63127298440621,174.89089965820312,Thorncliffe (ORMGP),,21.945602416992188,185.63363647460938,22203,09/03/2015,10/19/2021
1000204916,1000201826,Inspec-Sol BH11-12,York UYSS MW11-12,York UYSS MW11-12,44.05745814494733,-79.45566064230425,235.36085510253906,Mackinaw/Oak Ridges (ORMGP),5.079999923706055,2.0,233.29515075683594,25156,11/15/2017,04/23/2019
-1717820781,-1717820781,Greenbank SW 1-05,Durham - Greenbank - SW05-1,Greenbank-SW05-1,44.157936096191406,-79.02570343017578,313.6659851074219,Inter Newmarket Sediment (ORMGP),5.079999923706055,24.99359130859375,306.373779296875,49414,05/05/2006,12/31/2021
-1633966204,1418498507,CRA-MW27A-05,MW 27A-05 (SE Collector),CRA-MW27A-05,43.851585388183594,-79.15123748779297,162.13262939453125,Lower Newmarket (ORMGP),5.099999904632568,21.34000015258789,148.4878387451172,99,06/23/2005,02/04/2014
-1445997992,-1279570416,CRA-PW70B-07,PW 70B-07 (SE Collector),CRA-PW70B,43.84851837158203,-79.1177749633789,130.09300231933594,Lower Newmarket (ORMGP),,6.099998474121094,128.97076416015625,91,04/13/2007,06/05/2014
-1433505364,14380,Uxbridge MW 6 (PW 6),Durham - Uxbridge - MW 6 (PW 6),Uxbridge MW6,44.101600646972656,-79.1286392211914,278.2820129394531,Thorncliffe (ORMGP),30.479999542236328,52.12080383300781,271.5196838378906,7768,10/29/1990,10/31/2022
-1353924285,132131528,Schomberg MW 08 (04-3),York - Schomberg - MW 8 - SCH 04-3 (MMM),Schomberg MW 8 (04-3),44.003028869628906,-79.68477630615234,226.8820037841797,Upper Newmarket (ORMGP),3.180000066757202,2.80999755859375,225.92230224609375,109120,05/07/2004,07/13/2011
-1332768565,2121689798,Dufferin OW1-1,Milton Quarry - OW 1-1,OW1-1,43.559173583984375,-79.97825622558594,332.15753173828125,Bedrock - Undifferentiated (ORMGP),0.07599999755620956,5.160003662109375,329.2158508300781,89,11/12/1997,12/09/2003
81183614,-442543882,CRA-MW65B-07,MW 65B-07 (SE Collector),CRA-MW65B-07,43.841434478759766,-79.16386413574219,156.08599853515625,Lower Newmarket (ORMGP),,27.42999267578125,151.2932891845703,59,03/16/2007,10/17/2011
82709072,-1693202481,MW05-03,MW 05-03 (SE Collector),MW5-03,43.85158920288086,-79.20226287841797,163.77099609375,Lower Newmarket (ORMGP),5.079999923706055,19.811996459960938,156.65721130371094,113,10/22/2003,07/11/2014
120000007,120000006,Newmarket MW 19,York - Newmarket - MW 19 (AECOM - Green-Lane),Newmarket MW 19,44.07541275024414,-79.47457885742188,263.0926208496094,Thorncliffe (ORMGP),7.619999885559082,83.89999389648438,227.88401794433594,204947,05/21/2013,03/30/2022
187694475,16413552,Uxbridge SW 6-08-1,Durham - Uxbridge - SW 6-08-1,Uxbridge SW 6-08-1,44.09638977050781,-79.1292953491211,285.57598876953125,Channel - Sand (ORMGP),5.079999923706055,23.469600677490234,279.3773498535156,214698,06/21/2007,12/31/2021
240000068,360000463,Sunderland MW 3 (PW 3) (TW 17-3),Durham - Sunderland - MW 3 (TW 17-3),Sunderland MW 3 (PW 3) (TW 17-3),44.266632080078125,-79.06946563720703,285.21600341796875,Thorncliffe (ORMGP),14.0,27.899999618530273,275.57366943359375,21627,10/05/2017,10/31/2022
241500542,241481052,CRA-MW 31-05,MW 31-05 (SE Collector),CRA-MW 31-05,43.86482620239258,-79.1740951538086,186.81869506835938,,,,177.43836975097656,47,01/04/2008,09/19/2011
1121954263,1477941490,PGMN - TRCA - W0000382,TRCA - Milne Park (PGMN),PGMN - TRCA - W0000382,43.86540985107422,-79.27542877197266,180.67999267578125,Lower Newmarket (ORMGP),6.349999904632568,17.399993896484375,169.80343627929688,140488,07/14/2003,06/16/2023
1286940578,-1702980944,CRA-BH33-07,BH 33-07 (SE Collector),CRA-BH33-07,43.84777069091797,-79.12167358398438,133.05599975585938,Lower Newmarket (ORMGP),2.5,15.0,129.49801635742188,67,02/26/2008,09/02/2014
1321742133,1575921408,CRA-York-MW20c,Markham MW20c-03 (SE Collector),CRA-York-MW20C,43.89081573486328,-79.2764663696289,199.20944213867188,Scarborough (ORMGP),5.079999923706055,45.720001220703125,199.41726684570312,129,01/04/2008,05/01/2015
1417731663,-350089756,CRA-BH123A-07,BH 123A-07 (SE Collector),CRA-PZ123A-07,43.86436080932617,-79.2303695678711,178.5800018310547,Thorncliffe (ORMGP),5.079999923706055,32.003997802734375,165.1568603515625,51,01/23/2008,12/08/2011
1423845787,1953066618,Blackstock TW 02/1,Durham - Blackstock - TW 02-1,Blackstock TW 02/1,44.11088562011719,-78.82453918457031,289.89599609375,Thorncliffe (ORMGP),15.239999771118164,52.73040771484375,283.0331115722656,65899,09/18/2002,12/31/2021
1452291968,1452291968,Cannington MW 6 (PW 6),Durham - Cannington - MW 6 (PW 6) (TH 11-74),Cannington-MW6,44.348228454589844,-79.02915954589844,259.4049987792969,Bedrock - Undifferentiated (ORMGP),25.399999618530273,6.0959930419921875,255.020751953125,2946,01/01/2001,07/13/2012
1481942366,1444555421,Dufferin BH27,Milton Quarry - BH 27,BH27,43.545379638671875,-79.98665618896484,320.79998779296875,Bedrock - Undifferentiated (ORMGP),,5.100006103515625,315.85791015625,126,06/27/1995,12/09/2003
224977035,592412090,Halton Fed of Agr - Pocock,LAZY PAT FARMS,2804021,43.4299430847168,-79.78340148925781,149.0437469482422,Bedrock - Undifferentiated (ORMGP),,3.6537468433380127,143.53236389160156,183,11/18/1972,12/02/2022
1740046376,1215338230,MOE OW #213A,CITY OF GUELPH,MOE Obs Well #213A,43.55439758300781,-80.16661834716797,317.41888427734375,Thorncliffe (ORMGP),,3.048004150390625,315.43170166015625,1138,02/19/1968,12/07/2000
372747969,55808084,Georgetown MW 10-04,Halton - Georgetown - MW 10-04,Georgetown - MW 10-04,43.6398811340332,-79.91345977783203,228.8311767578125,Upper Newmarket (ORMGP),6.349999904632568,2.6952056884765625,265.5459289550781,44040,09/24/2004,12/27/2007
1639570565,-1970788504,6813533,CITY OF HAMILTON,6813533,43.2835693359375,-79.99079895019531,241.28587341308594,Bedrock - Undifferentiated (ORMGP),,10.667999267578125,233.60986328125,94,10/26/1992,08/15/2002
1112638613,413720764,Caledon East DP 10-02,Peel - Caledon East - DP 10-02,Caledon East DP 10-02s,43.89688491821289,-79.87973022460938,334.8671569824219,Mackinaw/Oak Ridges (ORMGP),2.5,1.5,334.97052001953125,68,11/14/2002,07/22/2014
1112638613,-508416974,Caledon East DP 10-02,Peel - Caledon East - DP 10-02,Caledon East DP 10-02d,43.89688491821289,-79.87973022460938,334.8671569824219,Mackinaw/Oak Ridges (ORMGP),2.5399999618530273,1.8699951171875,334.6285400390625,71,11/14/2002,07/22/2014
-1187483630,-1187483630,Minesing T6-13,NVCA - Minesing T6-13,Minesing T6-13_D,44.38103485107422,-79.83048248291016,191.0,Upper Newmarket (ORMGP),5.079999923706055,1.7700042724609375,190.96934509277344,13174,09/15/2014,08/23/2018
-1187483623,-1187483623,Minesing T6-9,NVCA - Minesing T6-9,Minesing T6-9_D,44.3812370300293,-79.83282470703125,187.1199951171875,Upper Newmarket (ORMGP),5.079999923706055,1.3899993896484375,186.9313201904297,4463,09/15/2014,08/23/2018
-1187483619,-1187483619,Minesing Grenfel,NVCA - Minesing - Grenfel,Minesing Grenfel,44.37935256958008,-79.80697631835938,275.1000061035156,Upper Newmarket (ORMGP),5.079999923706055,45.720001220703125,255.26365661621094,49601,02/06/2014,11/07/2022
-932472593,-932472593,JHL OW 02-3S,Glen Acres - Uxbridge - OW 02-3S,JHL OW 02/3S,44.112457275390625,-79.12651062011719,268.05999755859375,Channel - Silt (ORMGP),,1.20001220703125,267.23809814453125,95,04/18/2005,05/16/2013
125711,125711,Newmarket (Private) Liebel (new),York - Newmarket - Private (LEIBEL S-new),Newmarket (Private) LEIBEL S (New),44.038272857666016,-79.52586364746094,293.43524169921875,Lower Newmarket (ORMGP),15.239999771118164,68.27520751953125,224.25111389160156,57,09/04/1991,01/12/2006
127434,127434,Queensville (Private) Peterson,"York - Queensville - Private - PETERSON, ED",Queensville (Private) Peterson,44.16952133178711,-79.3846664428711,247.98313903808594,Thorncliffe (ORMGP),,40.23359680175781,233.81838989257812,50,09/10/1985,01/24/2006
127870,127870,Vandorf (Private) Attewell,"York - Vandorf - Private - ATTEWELL, W. CHARLES",Attewell (18 Marjorie Drive),44.007118225097656,-79.39847564697266,304.569091796875,Thorncliffe (ORMGP),15.239999771118164,53.94960021972656,258.04248046875,77,06/06/1984,01/10/2006
128575,128575,Holland Landing (Private) Bailey,"York - Holland Landing - Private (BAILEY, GORD)",Bailey,44.09089279174805,-79.467529296875,242.07618713378906,Thorncliffe (ORMGP),15.239999771118164,55.77839660644531,209.41358947753906,50,07/05/1987,01/24/2006
133661,133661,Stouffville PW 2,York - Stouffville - PW 2,Stouffville PW 2,43.97600555419922,-79.22447967529297,278.3550109863281,Thorncliffe (ORMGP),30.479999542236328,96.31680297851562,232.46035766601562,304818,02/26/1998,06/12/2022
134819,2057327122,REG 1-94,RG 1-94 (UofT),1/94-2,43.859596252441406,-79.13457489013672,160.1787109375,Mackinaw/Oak Ridges (ORMGP),5.079999923706055,20.529998779296875,155.44439697265625,154287,09/15/1994,07/27/2023
134819,1725697118,REG 1-94,RG 1-94 (UofT),1/94-1,43.859596252441406,-79.13457489013672,160.1787109375,Thorncliffe (ORMGP),5.079999923706055,42.30000305175781,139.11874389648438,158107,09/19/1994,07/27/2023
134819,-224412046,REG 1-94,RG 1-94 (UofT),1/94-3,43.859596252441406,-79.13457489013672,160.1787109375,Halton Till,5.079999923706055,8.789993286132812,156.00839233398438,178354,09/15/1994,07/27/2023
134819,360000234,REG 1-94,RG 1-94 (UofT),1/94-4,43.859596252441406,-79.13457489013672,160.1787109375,Lower Newmarket (ORMGP),1.9049999713897705,30.490005493164062,139.900634765625,288,09/19/1994,07/27/2023
134853,148775,Aurora PW 6,York - Aurora - PW 6,Aurora PW 6,44.021060943603516,-79.44990539550781,258.95001220703125,Thorncliffe (ORMGP),30.0,79.89999389648438,236.25514221191406,127411,02/02/1996,06/12/2022
240741018,240731650,Carlisle Rd (Overburden Well),MOE Well 20180530 - Name Witheld by MOE,Carlisle Rd (Overburden Well),43.40633010864258,-79.9639892578125,259.21710205078125,Bedrock - Undifferentiated (ORMGP),,14.94000244140625,257.5146789550781,305,02/06/1991,01/31/2008
1000218337,1000222515,GHD MP22-15,York UYSS MP22-15,York UYSS MP22-15,44.04618453979492,-79.45677947998047,240.1619873046875,Late Stage Glaciolacustrine-Glaciofluvial (ORMGP),,0.9700000286102295,239.53623962402344,11266,04/16/2015,12/02/2016
1017006143,-271617959,PGMN - CLOCA - W0000262,CLOCA - Columbus MWW-03 (PGMN),PGMN - CLOCA - W0000262,43.986663818359375,-78.90258026123047,207.99000549316406,Mackinaw/Oak Ridges (ORMGP),6.349999904632568,16.759994506835938,200.1103515625,117317,02/11/2003,05/12/2021
1085502717,-1067817813,Alton EW 1-1,Peel - Alton - EW 1-1 (AMEC),Alton EW 1-1,43.85847854614258,-80.06415557861328,404.0299987792969,Mackinaw/Oak Ridges (ORMGP),7.5,7.0,396.86480712890625,15262,01/28/2004,10/26/2009
1091478195,1694766338,CRA-BH44-07,BH 44-07 (SE Collector),CRA-BH44-07,43.84831619262695,-79.1274642944336,154.39999389648438,Thorncliffe (ORMGP),3.0,42.599998474121094,149.50636291503906,40,01/23/2008,12/13/2011
730900179,730900260,Inglewood OW 6i,Peel - Inglewood - MW- I,Inglewood OW 6i,43.82528002332005,-79.9374475784241,284.2885,Lower Newmarket (ORMGP),,48.80000305175781,282.47149658203125,4039,03/03/2022,08/17/2022
1000025654,1000005283,Spring A Deep,PSAD/00(COG),Spring A Deep (gw),43.550414427230265,-80.16991406187343,316.0,Inter Newmarket Sediment (ORMGP),,0.54998779296875,316.07550048828125,209,07/31/2000,10/22/2001
18925,18925,MOE OW #414A,MINISTRY OF ENVIRONMENT (OWRC),MOE Obs Well #414A,43.58334732055664,-79.97315216064453,,Bedrock - Undifferentiated (ORMGP),17.779998779296875,3.048004150390625,332.475341796875,916,05/04/1966,09/11/1978
20567,20567,Halton Fed of Agr - McCarthy - New,MCCARTHY J,2803737,43.5963249206543,-79.90630340576172,254.805908203125,Halton Till,,6.705596923828125,251.75936889648438,182,09/23/1971,12/02/2022
20668,20668,2803990,WULF CONST,2803990,43.635948181152344,-79.95504760742188,285.8672790527344,Bedrock - Undifferentiated (ORMGP),15.239999771118164,15.239990234375,269.09332275390625,46,09/22/1972,08/22/1997
21518,21518,2806255,"MICHIE, PHIL",2806255,43.638675689697266,-79.95803833007812,285.44598388671875,Inter Newmarket Sediment (ORMGP),15.239999771118164,25.60321044921875,269.6333312988281,35,10/04/1984,09/26/1997
